,number,title,classification,timestamp,latitude,longitude,month,year,state
0,1330,Report 1330: Motorist's sighting results in a collision.,Class A,1960-01-01 12:00:00,39.33292,-95.84024,1,1960,Kansas
1,1495,Report 1495: Man and wife in car see a sasquatch eating frogs on the road,Class A,1960-07-18 12:00:00,47.1305,-123.0966,7,1960,Washington
2,15610,Report 15610: Children see creature emerging from abandoned barn near Caruthersville.,Class A,1960-08-15 12:00:00,36.00565,-89.67815,8,1960,Tennessee
3,29549,Report 29549: Memory told of a possible daylight sighting while driving deer on a farm east of Iron River,Class B,1960-10-31 12:00:00,46.10294,-88.45181,10,1960,Michigan
4,30135,Report 30135: Man recalls encounter with 7 foot tall creature on grandparents farm,Class A,1960-11-04 12:00:00,32.96854,-85.02602,11,1960,Georgia
5,3582,"Report 3582: Hunters hear vocalization in a hollow off Route 2, near Lesage",Class B,1960-11-15 12:00:00,38.5464,-82.25949,11,1960,West Virginia
6,28678,Report 28678: Man recalls a possible up-close nighttime encounter on Gilchrist Island,Class B,1961-03-18 12:00:00,28.90854,-82.34611,3,1961,Florida
7,5232,Report 5232: Hunters have unusual late night experience near Willow Creek,Class B,1961-04-01 12:00:00,40.94083,-123.6283,4,1961,California
8,38547,Report 38547: Medical doctor recalls his daylight sighting as a teenager near Huntington,Class A,1961-06-15 12:00:00,38.35806,-82.43855,6,1961,West Virginia
9,12951,"Report 12951: Possible encounter between a juvenile and a human child, near Gettysburg",Class A,1961-07-01 12:00:00,39.76366,-77.27178,7,1961,Pennsylvania
10,6097,Report 6097: Man describes childhood sighting at rural property on the outskirts of Atlanta,Class A,1961-09-01 12:00:00,33.70037,-84.53352,9,1961,Georgia
11,7234,Report 7234: Daylight sighting by two sisters near their farm in the early 1960s,Class A,1961-10-15 12:00:00,34.88111,-91.08056,10,1961,Arkansas
12,26962,Report 26962: Childhood face to face encounter at dusk in the river bottoms of Bootheel,Class A,1961-10-15 12:00:00,36.06055,-89.98725,10,1961,Missouri
13,23531,"Report 23531: Woman tells of her husband's close encounter as a young man with ""The Hermit""  near Huntsville",Class B,1961-11-11 12:00:00,30.812,-95.75645,11,1961,Texas
14,1691,Report 1691: Tracks found in deep snow,Class B,1961-12-28 12:00:00,47.92528,-117.1153,12,1961,Washington
15,24238,Report 24238: Man recalls multi-witness sighting in teen years near Manistique,Class A,1962-04-01 12:00:00,45.964,-86.1437,4,1962,Michigan
16,9962,Report 9962: Daylight sighting off Highway 89 in the Wasatch Mountains.,Class A,1962-05-01 12:00:00,41.5,-111.75,5,1962,Utah
17,3651,"Report 3651: Sighting in the Audubon wildlife preserve, outside Aurora",Class A,1962-06-06 12:00:00,41.30265,-81.30896,6,1962,Ohio
18,25009,"Report 25009: Youngsters encounter large, grey creature in a sugar beet field",Class A,1962-08-14 12:00:00,37.475,-121.07,8,1962,California
19,445,Report 445: Boy Scouts have sighting while camping at Quednau Ranch,Class A,1962-08-15 12:00:00,27.0047,-82.0332,8,1962,Florida
20,30089,Report 30089: Memory told of a possible encounter while deer hunting east of Manistee,Class B,1962-11-15 12:00:00,44.1708,-86.10335,11,1962,Michigan
21,2309,Report 2309: 10-Ft. Shrieking Monster reported near Cold Springs,Class B,1963-01-27 12:00:00,38.1625,-120.0522,1,1963,California
22,2310,Report 2310: Large prints found below Cold Springs,Class B,1963-01-28 12:00:00,38.1625,-120.0522,1,1963,California
23,5720,Report 5720: Night time rabbit hunters spotlight 7' tall biped leaping over 4' sagebrush as it escapes from view,Class A,1963-06-15 12:00:00,42.79166,-116.25,6,1963,Idaho
24,7026,Report 7026: Three teenage boys witness an ape-like creature lope across a field into the woods,Class A,1963-07-01 12:00:00,40.85035,-82.29486,7,1963,Ohio
25,8405,Report 8405: Early evening road crossing sighting by motorist on Jekyll Island,Class A,1963-07-04 12:00:00,31.08925,-81.41267,7,1963,Georgia
26,7785,Report 7785: Family in small boat hears animal retreating and finds prints,Class B,1963-07-15 12:00:00,43.8628,-121.8829,7,1963,Oregon
27,6961,Report 6961: Teen has daytime sighting near Myers Flat,Class A,1963-08-01 12:00:00,40.26639,-123.8692,8,1963,California
28,41995,Report 41995: Memory told of a close encounter with a man-ape outside Gainesville,Class A,1963-09-15 12:00:00,29.67757,-82.35501,9,1963,Florida
29,9546,Report 9546: Teens chased by upright running animal near Bradford,Class A,1963-10-01 12:00:00,41.9548,-78.65621,10,1963,Pennsylvania
30,1953,Report 1953: Deputy Sheriff sees strange footprints above Strawberry,Class B,1963-12-01 12:00:00,38.23243,-119.984,12,1963,California
31,4141,"Report 4141: Witness spots a large, dark, hairy creature standing 50 yards away",Class A,1964-04-15 12:00:00,30.73861,-94.89778,4,1964,Texas
33,2396,Report 2396: Tall creature seen by witness,Class B,1964-06-30 12:00:00,32.26889,-96.69583,6,1964,Texas
34,15273,Report 15273: Young picnicker sees strange creature on rocky ledge above the St. Vrain River,Class A,1964-08-01 12:00:00,40.17585,-105.3792,8,1964,Colorado
35,28095,Report 28095: Man recalls possible encounter at a family cabin in Big Cottonwood Canyon outside Salt Lake City,Class B,1964-08-01 12:00:00,40.60779,-111.6508,8,1964,Utah
36,2553,"Report 2553: Bowhunter and wife abandon deer when threatened by large, unseen animal",Class B,1964-08-30 12:00:00,38.90833,-107.575,8,1964,Colorado
37,5381,Report 5381: Solider describes late night encounter on Fort Jackson,Class B,1964-10-10 12:00:00,34.0431,-80.80685,10,1964,South Carolina
38,6962,Report 6962: Friends hear late night scream near Garberville,Class B,1964-11-01 12:00:00,40.20556,-123.4908,11,1964,California
39,30367,Report 30367: Memories told of encounters experienced by a family living near Villa Grove,Class A,1964-11-07 12:00:00,39.8213,-88.1676,11,1964,Illinois
40,4236,Report 4236: Man recalls a possible encounter as a teen at Fort Gordon,Class B,1965-06-15 12:00:00,33.4119,-82.13665,6,1965,Georgia
41,6963,Report 6963: Teens have unusual experience near Myers Flat,Class A,1965-07-01 12:00:00,40.26639,-123.8692,7,1965,California
42,9202,Report 9202: Man remembers childhood daytime sighting along the Feather River,Class A,1965-07-01 12:00:00,39.205,-121.58,7,1965,California
43,20002,Report 20002: Afternoon highway crossing near Felch,Class A,1965-07-01 12:00:00,46.01398,-87.98718,7,1965,Michigan
44,5652,Report 5652: Apelike creature seen by children on a sand dune near Caseville,Class A,1965-07-15 12:00:00,43.94111,-83.27139,7,1965,Michigan
46,3150,Report 3150: Three witnesses throwing rocks in lake see a Bigfoot peeking at them,Class A,1965-07-30 12:00:00,47.3338,-121.2309,7,1965,Washington
47,1939,Report 1939: Youth's presence startles unknown animal,Class A,1965-10-01 12:00:00,34.6894,-77.2914,10,1965,North Carolina
48,40475,Report 40475: Memory told of strange occurrences while growing up near Castle Rock State Park,Class B,1965-10-02 12:00:00,41.96925,-89.38184,10,1965,Illinois
50,22561,Report 22561: Man recalls childhood observation - large tracks with long stride in snow - near Mayfield,Class B,1966-01-15 12:00:00,43.0949,-74.27923,1,1966,New York
51,25440,Report 25440: Man recalls multiple witness encounter near Hendersonville,Class A,1966-04-15 12:00:00,36.30155,-86.60155,4,1966,Tennessee
52,13816,Report 13816: Possible encounter with soldier training training in the Olympic National Forest,Class B,1966-05-01 12:00:00,47.969,-123.582,5,1966,Washington
53,34555,Report 34555: Woman recalls her nighttime face to face encounter at her window outside Tulsa,Class A,1966-08-15 12:00:00,36.13222,-95.79677,8,1966,Oklahoma
55,8059,Report 8059: Teenagers have sighting of two creatures near Albion,Class A,1966-09-01 12:00:00,39.22361,-123.7675,9,1966,California
56,1473,Report 1473: Family has early evening sighting near Weed,Class A,1966-09-01 12:00:00,41.42806,-122.3839,9,1966,California
57,30814,Report 30814: Possible encounters at a home located on a steep hillside near Ransom,Class B,1967-01-15 12:00:00,37.31413,-82.13403,1,1967,Virginia
58,12294,Report 12294: Daylight sighting near Happy Camp,Class A,1967-03-10 12:00:00,41.75,-123.35,3,1967,California
59,1973,"Report 1973: Teen hunter sees a sasquatch at a distance while bird hunting, and found tracks five years before",Class A,1967-03-15 12:00:00,46.23361,-119.3172,3,1967,Washington
60,29409,Report 29409: Woman remembers childhood sighting near Rogers City,Class A,1967-05-17 12:00:00,45.40985,-83.85985,5,1967,Michigan
61,7830,"Report 7830: Two teenagers witness something running from a pack of dogs on two legs, screaming very loud. The next day large five toed tracks are found",Class B,1967-07-01 12:00:00,41.38274,-82.12263,7,1967,Ohio
62,9868,Report 9868: Youths in Summer Camp have noisy nighttime experience,Class B,1967-07-15 12:00:00,46.951,-122.2985,7,1967,Washington
63,1801,Report 1801: Close daylight sighting of animal crossing road near Spirit Lake,Class A,1967-07-29 12:00:00,47.95614,-116.7787,7,1967,Idaho
64,24404,Report 24404: Woman recalls a very close encounter as a child on a farm near the Mark Twain National Forest,Class A,1967-07-30 12:00:00,36.97061,-92.09264,7,1967,Missouri
65,46494,Report 46494: Memory told of a daytime sighting in Schiller Woods,Class A,1967-08-15 12:00:00,41.9586,-87.8574,8,1967,Illinois
66,1596,"Report 1596: Two men witness three large individuals, two very large and the other about two-thirds their size",Class A,1967-08-16 12:00:00,46.94917,-122.6869,8,1967,Washington
67,1564,"Report 1564: ""Brinson Monster""",Class B,1967-08-18 12:00:00,46.49139,-122.9367,8,1967,Washington
68,23956,Report 23956: Man recounts boyhood sighting at Fairfield Summer Camp near Ligonier,Class A,1967-09-14 12:00:00,40.32247,-79.16817,9,1967,Pennsylvania
69,1644,Report 1644: Witness saw something he felt confident few men had ever seen,Class A,1967-10-18 12:00:00,46.385,-122.1379,10,1967,Washington
70,42730,"Report 42730: Childhood memory told of seeing an upright, white animal while playing in a creek near Brussels",Class B,1968-05-04 12:00:00,38.92993,-90.53175,5,1968,Illinois
71,4953,Report 4953: Family has sighting on farm along Headleys Mill Road,Class A,1968-08-01 12:00:00,40.00915,-82.67252,8,1968,Ohio
72,25082,"Report 25082: Retired police officer recalls he and a friend being intimidated from continuing their hike, near Bonita",Class B,1968-08-15 12:00:00,45.02176,-88.5233,8,1968,Wisconsin
73,3467,Report 3467: Witnesses describe 'huge' black creature that throws dirt at them near Chittyville.,Class C,1968-08-15 12:00:00,37.846,-89.0111,8,1968,Illinois
74,5816,Report 5816: Nighttime encounter by a worker at a logging site,Class B,1968-08-23 12:00:00,45.2075,-121.886,8,1968,Oregon
75,925,"Report 925: Backpacker observes a tall, early morning visitor in camp",Class B,1968-08-30 12:00:00,47.495,-120.835,8,1968,Washington
76,629,Report 629: Hunter locates large footprints near Railroad Flats,Class B,1968-09-01 12:00:00,38.30056,-120.7053,9,1968,California
78,12984,Report 12984: Nighttime sighting by motorists east of Carpentersville,Class A,1968-09-28 12:00:00,42.1295,-88.1577,9,1968,Illinois
79,6960,Report 6960: Early morning vocalizations heard near Rainbow Creek,Class B,1968-10-16 12:00:00,35.42525,-77.67995,10,1968,North Carolina
80,1526,"Report 1526: Couple parked on dirt road encounter hairy, man-like creature",Class A,1968-10-18 12:00:00,31.30853,-94.76362,10,1968,Texas
81,849,Report 849: Girl has daytime sighting near Payne's Creek,Class A,1968-11-01 12:00:00,40.33556,-121.9139,11,1968,California
82,37448,Report 37448: Hunter recalls a possible encounter during deer season near St. Helen,Class B,1968-11-15 12:00:00,44.377,-84.4995,11,1968,Michigan
83,1621,Report 1621: Fisherman witnesses bigfoot cross the road in front of his car,Class A,1969-03-05 12:00:00,45.66194,-122.0144,3,1969,Washington
84,1620,Report 1620: Family on vacation find tracks in an isolated area.,Class B,1969-03-09 12:00:00,46.3341,-121.7913,3,1969,Washington
85,723,Report 723: creature sitting on a wood pile seen watching witness.,Class A,1969-06-15 12:00:00,28.50665,-82.50591,6,1969,Florida
86,21916,Report 21916: Possible Evening Encounter by Woman on Horseback near Union,Class B,1969-07-01 12:00:00,41.80205,-85.84005,7,1969,Michigan
87,50155,Report 50155: Memory of seeing something chimp-like in the trees and being chased out of the woods near Brereton,Class B,1969-07-12 12:00:00,40.61182,-90.01651,7,1969,Illinois
88,22448,Report 22448: Early morning sighting near Scott City Diversion Canal,Class A,1969-07-16 12:00:00,37.236,-89.55949,7,1969,Missouri
89,13674,Report 13674: Sightings around a property near Chesnee,Class B,1969-07-18 12:00:00,35.148,-81.861,7,1969,South Carolina
90,14376,Report 14376: Encounter during a summer camp campout near the Brazos River,Class A,1969-07-20 12:00:00,32.8269,-98.3298,7,1969,Texas
91,24421,Report 24421: Woman remembers daylight sighting while walking in the Slate Creek area,Class A,1969-08-01 12:00:00,37.2875,-81.68124,8,1969,West Virginia
92,28714,Report 28714: Memory told of seeing a bigfoot on the side of a road along Middle Branch Creek,Class A,1969-08-09 12:00:00,40.62288,-89.99328,8,1969,Illinois
93,4741,Report 4741: Four witnesses have encounter near McCall,Class A,1969-08-16 12:00:00,44.91666,-116.0833,8,1969,Idaho
94,1944,Report 1944: Family has multiple encounters with white bigfoot creature,Class A,1969-08-16 12:00:00,33.76986,-94.3643,8,1969,Arkansas
95,24147,Report 24147: Creature seen at a flooded rock quarry near Hampton,Class A,1969-09-01 12:00:00,41.55965,-90.40675,9,1969,Illinois
96,2935,Report 2935: Father and son see large footprints outside Orick,Class B,1969-09-01 12:00:00,41.30056,-124.0644,9,1969,California
98,10510,Report 10510: Logger and granddaughter have brief sighting in the Selkirk Mountains,Class A,1969-10-18 12:00:00,48.1143,-116.0558,10,1969,Idaho
99,5453,Report 5453: Large bipedal animal seen 5 miles East of Packwood on Hwy 12,Class A,1969-11-15 12:00:00,46.6711,-121.5863,11,1969,Washington
100,5452,"Report 5452: A large bipedal animal seen in the headlights on hwy 12,  5 miles East of Packwood",Class A,1969-11-19 12:00:00,46.67389,-121.5867,11,1969,Washington
101,29124,Report 29124: Recollection of a daylight sighting while deer hunting near Greenbrier River.,Class A,1969-11-24 12:00:00,38.1882,-80.1177,11,1969,West Virginia
102,23645,"Report 23645: Sighting by motorist in the Great Smoky Mountains National Park, not far from the park entrance.",Class A,1970-04-01 12:00:00,35.68449,-83.53575,4,1970,Tennessee
103,2602,Report 2602: Loud vocalizations heard near Stevens Pass,Class B,1970-04-14 12:00:00,47.7117,-121.1544,4,1970,Washington
104,1384,Report 1384: Vocalizations heard by hikers,Class B,1970-05-13 12:00:00,47.5225,-121.7569,5,1970,Washington
105,35477,Report 35477: Memory told of a nighttime sighting while joy riding on train tracks near Purcellville,Class A,1970-05-15 12:00:00,39.14588,-77.67422,5,1970,Virginia
106,56107,Report 56107: Memory told of a nighttime sighting while working as a police officer answering a prowler call in Marrero,Class A,1970-05-15 12:00:00,29.5385,-90.593,5,1970,Louisiana
107,7392,Report 7392: Youth catches standing figure in flashlight glow during camp-out,Class A,1970-05-16 12:00:00,36.63931,-78.55758,5,1970,Virginia
108,16714,Report 16714: Two men remember hearing bone-chilling scream while parking at lookout point in Stone State Park,Class B,1970-06-01 12:00:00,42.55576,-96.47562,6,1970,Iowa
109,2957,Report 2957: Youths riding in back of pick-up have close observation of large biped crossing road,Class A,1970-06-15 12:00:00,35.9975,-93.83426,6,1970,Arkansas
110,13673,"Report 13673: Various incidents around home with women and children only, near Summerville",Class A,1970-06-24 12:00:00,33.007,-80.156,6,1970,South Carolina
111,4669,Report 4669: Memory told of hearing possible vocalizations while camping at Hollywood Gorge near Castle Rock,Class B,1970-07-01 12:00:00,46.37,-122.82,7,1970,Washington
112,13037,Report 13037: Possible nest nest and food remains found by retired soldier near the Sandy River,Class B,1970-07-15 12:00:00,45.4861,-122.277,7,1970,Oregon
113,38797,Report 38797: Woman recalls childhood experience of a terrifying night-time encounter while camping near Kennecott Copper mine,Class B,1970-07-17 12:00:00,40.4871,-112.1402,7,1970,Utah
114,6027,Report 6027: Heavy steps around tent in dark scare backpackers,Class B,1970-08-15 12:00:00,44.6335,-121.8165,8,1970,Oregon
115,1234,Report 1234: Creature observed by witness.,Class A,1970-08-15 12:00:00,43.078,-91.3867,8,1970,Iowa
116,23929,Report 23929: Dusk sighting by two women near Three Lakes (w/sketch by artist),Class A,1970-09-01 12:00:00,46.56913,-88.28403,9,1970,Michigan
117,5692,Report 5692: Father and son hear vocalizations on Peavine Mt,Class B,1970-09-01 12:00:00,39.592,-119.975,9,1970,Nevada
118,24569,Report 24569: A couple remembers their daylight sighting while driving thru the Shenandoah National Park many years ago,Class A,1970-09-16 12:00:00,38.73048,-78.33453,9,1970,Virginia
119,44740,Report 44740: Memory told of being chased off by frightening thumps and scream while hiking in Pikes Peak State Park,Class B,1970-09-27 12:00:00,43.00499,-91.17154,9,1970,Iowa
120,3050,Report 3050: Graceful creature ran by man when he was 15,Class A,1970-10-14 12:00:00,45.3725,-121.5835,10,1970,Oregon
121,50659,Report 50659: Young man has several possible day-time encounters near Moses Mountain in the '70s,Class B,1970-10-15 12:00:00,48.40859,-119.0709,10,1970,Washington
122,48354,Report 48354: Woman recalls scary night while at a Girl Scout campground in Bear Brook State Park,Class B,1970-10-31 12:00:00,43.11074,-71.35414,10,1970,New Hampshire
123,28711,Report 28711: Memory told of seeing an upright figure walk into a shooting lane while hunting near Nashwauk,Class A,1970-11-01 12:00:00,47.52522,-93.25262,11,1970,Minnesota
124,4968,Report 4968: Tracks found along soybean field near Edinburgh,Class B,1970-11-01 12:00:00,41.10715,-81.1414,11,1970,Ohio
125,8259,Report 8259: Hunters find scat and have large rock thrown at them,Class B,1970-11-15 12:00:00,46.1333,-68.8405,11,1970,Maine
126,25764,Report 25764: Hunter recalls finding fresh tracks in snow outside of Glide,Class B,1970-11-15 12:00:00,43.40867,-122.8887,11,1970,Oregon
127,1895,Report 1895: Four hunters find large tracks in snow outside their camp,Class B,1970-11-22 12:00:00,47.19944,-120.2758,11,1970,Washington
128,56809,Report 56809: Memory told of seeing a tall figure on a rock embankment at night near Crossville,Class B,1970-12-19 12:00:00,35.545,-85.0667,12,1970,Tennessee
129,11930,Report 11930: Soldier sees large figure while on patrol at Fort Lewis,Class B,1971-03-01 12:00:00,47.0849,-122.5926,3,1971,Washington
130,13287,Report 13287: Possible BF-related incidents around a home near Guadalupe Pass,Class B,1971-04-15 12:00:00,37.4583,-120.0833,4,1971,California
131,1120,Report 1120: Sasquatch encountered standing by porch,Class A,1971-06-01 12:00:00,36.6,-91.2,6,1971,Missouri
132,604,Report 604: Nightime sighting by motorists near Boring,Class A,1971-06-25 12:00:00,45.4237,-122.3876,6,1971,Oregon
133,4307,Report 4307: Late night sighting by children at a home in Calcutta,Class A,1971-06-30 12:00:00,40.6807,-80.57164,6,1971,Ohio
134,15588,Report 15588: Daytime sighting of white creature near Dillon,Class A,1971-06-30 12:00:00,39.7198,-106.1666,6,1971,Colorado
135,1021,Report 1021: Large Creature standing in road,Class A,1971-07-15 12:00:00,29.7351,-81.96195,7,1971,Florida
136,513,Report 513: Future doctor sees giant tracks high in Rawah wilderness,Class A,1971-07-15 12:00:00,40.79166,-105.9583,7,1971,Colorado
137,19938,Report 19938: Teenager views runner covered in hair near Michigamme,Class A,1971-07-15 12:00:00,46.5244,-88.16701,7,1971,Michigan
138,4983,Report 4983: Sighting and vocalizations at a home in Wayne National Forest,Class A,1971-08-01 12:00:00,39.38745,-81.67339,8,1971,Ohio
139,2385,Report 2385: Strange sounds heard over the course of that summer,Class B,1971-08-01 12:00:00,38.14415,-85.89175,8,1971,Kentucky
140,1954,Report 1954: Brothers have strange experience above Strawberry,Class B,1971-08-06 12:00:00,38.29116,-119.7275,8,1971,California
141,1645,Report 1645: Witness observed creature walking up a hill,Class A,1971-08-27 12:00:00,46.27583,-122.2083,8,1971,Washington
142,3606,Report 3606: Campers have daylight sighting near Leadville,Class A,1971-09-15 12:00:00,39.25,-106.3,9,1971,Colorado
143,3439,Report 3439: Young boy startles creature under house porch.,Class A,1971-10-01 12:00:00,36.09945,-80.7704,10,1971,North Carolina
144,1228,"Report 1228: Youngster frightened by ""monster"" peeping in window",Class B,1971-10-01 12:00:00,40.025,-105.4458,10,1971,Colorado
145,39858,Report 39858: Memory told of a possible nighttime sighting outside a home in Granite Falls,Class B,1971-10-15 12:00:00,48.0835,-121.9683,10,1971,Washington
146,10046,"Report 10046: Small group observed in a remote part of Essex County Swamp, around noon.",Class A,1971-10-16 12:00:00,40.8959,-74.2918,10,1971,New Jersey
147,2909,Report 2909: Deer kill stash discovered after bigfoot sighting,Class B,1971-10-25 12:00:00,34.72195,-94.96639,10,1971,Oklahoma
148,23227,Report 23227: Daylight sighting by squirrel hunter outside Sarepta,Class A,1971-11-12 12:00:00,32.895,-93.45,11,1971,Louisiana
149,36761,Report 36761: Memory told of a close encounter while deer hunting east of Salem,Class A,1971-11-17 12:00:00,37.39315,-91.3012,11,1971,Missouri
150,24052,Report 24052: Man recounts boyhood experience of hearing a terrifying scream while hunting near the San Pedro River,Class B,1972-01-01 12:00:00,31.63,-110.177,1,1972,Arizona
151,63178,Report 63178: A couple is escorted out of the forest after finding a possible nesting area near Rio Grande,Class B,1972-01-17 12:00:00,38.88059,-82.43382,1,1972,Ohio
152,3525,Report 3525: Snowmobiler finds large barefoot tracks in upper peninsula of Michigan,Class B,1972-02-25 12:00:00,46.52889,-85.49639,2,1972,Michigan
153,1719,Report 1719: Possible collision with vehicle outside Homestead,Class B,1972-03-15 12:00:00,25.4817,-80.5158,3,1972,Florida
154,5519,Report 5519: Man recalls childhood encounter with sasquatch,Class B,1972-05-15 12:00:00,30.32305,-85.4427,5,1972,Florida
155,1652,"Report 1652: Multiple witness incident on the western slope of Silver Star Mt., near Pyramid Rock",Class A,1972-05-22 12:00:00,45.74639,-122.2375,5,1972,Washington
156,12302,"Report 12302: Yellowstone backcountry ranger describes sighting, other incidents",Class A,1972-06-06 12:00:00,44.58333,-110.5,6,1972,Wyoming
157,41634,Report 41634: Memory told of observing bi-pedal creatures while driving on an unimproved dirt road in the Wallowa Mountains east of Cove,Class B,1972-07-01 12:00:00,45.44986,-117.7273,7,1972,Oregon
158,27768,Report 27768: Memory shared of a daylight sighting while searching for bottles along a rural road outside Garrett,Class A,1972-07-15 12:00:00,32.36,-96.66,7,1972,Texas
159,31912,Report 31912: Childhood sighting recalled near Whitehouse,Class A,1972-07-15 12:00:00,32.24271,-95.12872,7,1972,Texas
160,1136,Report 1136: Creature seen stepping over four foot barbed wire fence near the town of Louisiana,Class A,1972-07-15 12:00:00,39.3735,-91.093,7,1972,Missouri
161,1632,Report 1632: Family camping at Lake Somerville is menaced by a loud screaming creature,Class B,1972-07-15 12:00:00,30.33333,-96.55,7,1972,Texas
162,37304,Report 37304: Best friends recall watching their dirt bike being canvassed by a hairy biped while camping at Lake Mills,Class A,1972-07-29 12:00:00,28.62323,-81.12898,7,1972,Florida
163,4959,Report 4959: Nightime sighting at a Lake Milton marina,Class A,1972-08-01 12:00:00,41.1174,-80.9835,8,1972,Ohio
164,10687,Report 10687: Child sees large figure looking at him in window at night,Class B,1972-08-15 12:00:00,39.01142,-76.53862,8,1972,Maryland
165,5697,Report 5697: Three boys encounter sasquatch in eroded terrain,Class A,1972-08-15 12:00:00,39.679,-119.6665,8,1972,Nevada
166,1612,Report 1612: Screams terrify campers near Mt. St. Helens,Class B,1972-08-15 12:00:00,46.06333,-122.1967,8,1972,Washington
167,5770,Report 5770: Four feral dogs chase sasquatch,Class B,1972-08-25 12:00:00,39.679,-119.6665,8,1972,Nevada
169,1226,Report 1226: Teens returning from baseball game were chased by bigfoot.,Class A,1972-08-31 12:00:00,47.0033,-123.4822,8,1972,Washington
170,32196,Report 32196: Memory told of family encounters near Granite City.,Class B,1972-09-04 12:00:00,38.74784,-90.14547,9,1972,Illinois
171,8487,Report 8487: Hiking boy has close encounter in High Sierra,Class A,1972-09-15 12:00:00,37.5703,-118.972,9,1972,California
172,3471,Report 3471: Beige upright creature seen at a distance of 1000 yards near Kell.,Class C,1972-09-15 12:00:00,38.4975,-88.9094,9,1972,Illinois
173,26605,Report 26605: Man recalls early morning sighting while squirrel hunting near Salyersville,Class A,1972-09-30 12:00:00,37.81144,-83.08006,9,1972,Kentucky
174,15120,Report 15120: Man describes daylight sighting by father (elk hunter) near Clarkia,Class B,1972-10-01 12:00:00,47.0615,-116.322,10,1972,Idaho
175,2390,Report 2390: Bow hunter encounters large bipedal animal with a short neck and long arms,Class A,1972-10-01 12:00:00,36.89478,-87.02245,10,1972,Kentucky
176,7715,Report 7715: Duck hunters have early morning encounter,Class A,1972-10-14 12:00:00,30.2576,-92.6221,10,1972,Louisiana
177,27035,Report 27035: Man recounts childhood incident at his home on Oneida Lake,Class B,1972-10-28 12:00:00,43.1546,-75.73906,10,1972,New York
178,28423,Report 28423: Man recalls his face to face daylight encounter in Siloam Springs State Park,Class A,1972-10-29 12:00:00,39.93521,-89.88871,10,1972,Illinois
179,1636,Report 1636: Teenager has sighting near Ozark National Forest,Class A,1972-11-05 12:00:00,36.19444,-92.38222,11,1972,Arkansas
180,2830,Report 2830: BF shakes bush and screams at 2 hunters,Class A,1972-11-15 12:00:00,43.79834,-84.2114,11,1972,Michigan
181,10608,Report 10608: Deer hunter watches large upright walking animal on Butler Knob.,Class A,1972-11-18 12:00:00,35.6267,-81.5917,11,1972,North Carolina
182,18623,Report 18623: Memory told of an early morning encounter with hairy biped near Buchanan,Class A,1972-11-18 12:00:00,37.54,-79.57,11,1972,Virginia
183,1338,Report 1338: Several incidents in the East Fork Community,Class A,1973-01-01 12:00:00,31.1603,-90.71574,1,1973,Mississippi
184,5059,Report 5059: Family hears strange screams off Highway 54,Class B,1973-04-04 12:00:00,39.445,-91.07,4,1973,Missouri
185,26381,Report 26381: Man recalls adversarial encounter with an unknown creature near French Gulch,Class B,1973-04-15 12:00:00,40.8333,-122.6417,4,1973,California
186,56954,Report 56954: Two young hunters hide and watch hairy bipedal animal walking near the Jenkins Ferry Battleground Historical Monument,Class A,1973-04-15 12:00:00,34.20873,-92.57542,4,1973,Arkansas
187,1383,Report 1383: Creature seen running along a road,Class A,1973-04-18 12:00:00,47.29944,-122.1806,4,1973,Washington
188,23530,Report 23530: Man recalls childhood incident near Grayling,Class A,1973-05-01 12:00:00,44.7,-84.71,5,1973,Michigan
189,26905,Report 26905: Fisherman has closeup encounter with a juvenile near Kankakee,Class A,1973-05-13 12:00:00,41.16124,-87.58124,5,1973,Illinois
190,1809,Report 1809: Two witnesses see a crouched figure on the beach. It stood up and walked into the nearby woods,Class A,1973-05-19 12:00:00,47.4549,-122.2825,5,1973,Washington
191,3472,Report 3472: Series of three incidents describing a human sized creature near edge of Edwardsville.,Class C,1973-06-06 12:00:00,38.809,-89.918,6,1973,Illinois
192,42547,Report 42547: Woman recalls her possible encounter on a farm outside Prairie du Rocher.,Class B,1973-06-08 12:00:00,38.09052,-90.06338,6,1973,Illinois
193,32162,Report 32162: Recollection of daylight sighting as youth near Victoria,Class A,1973-06-09 12:00:00,40.98073,-90.18332,6,1973,Illinois
194,44283,Report 44283: Family members describe screaming and house smacking near Prairie Home,Class A,1973-06-13 12:00:00,38.437,-92.408,6,1973,Missouri
195,23400,Report 23400: Upright creature crosses road in the path of a car near Newington Forest,Class A,1973-06-13 12:00:00,38.741,-77.23238,6,1973,Virginia
196,50534,Report 50534: Memory told of rocks thrown as two friends attempt to climb steep hill at Lake of the Ozarks,Class B,1973-07-01 12:00:00,38.16811,-92.79309,7,1973,Missouri
197,27978,Report 27978: Memory of a possible encounter as young girls riding horses at night near the Coralville Reservoir,Class B,1973-07-01 12:00:00,41.76292,-91.59415,7,1973,Iowa
198,10538,Report 10538: Youths have daylight sighting near Westfield,Class A,1973-07-10 12:00:00,40.0403,-86.1084,7,1973,Indiana
199,58048,Report 58048: Recalling a morning sighting as a teenager horseback riding near Marblemount,Class A,1973-07-15 12:00:00,48.52395,-121.4105,7,1973,Washington
200,13874,Report 13874: Old sighting (1973) and recent vocalizations (2005/06) on the outskirts of Maryland (town),Class A,1973-08-01 12:00:00,42.56379,-74.8865,8,1973,New York
201,2428,Report 2428: Witness has sighting next to his home in Madison Co,Class A,1973-08-01 12:00:00,37.57039,-84.28714,8,1973,Kentucky
202,1680,Report 1680: Young boy awakened by a loud roaring scream (Part 1),Class B,1973-08-15 12:00:00,46.803,-122.4133,8,1973,Washington
203,1030,"Report 1030: 5 children observe a very large hairy ""man"" for several minutes (N. Ft. Myers)",Class A,1973-08-23 12:00:00,26.59885,-81.8708,8,1973,Florida
204,3292,Report 3292: Mountain goat hunters have encounter with 8'-9' tall biped,Class A,1973-08-24 12:00:00,45.08334,-115.75,8,1973,Idaho
205,33014,Report 33014: Memory told of a daylight sightling while walking down railroad tracks near East Liverpool,Class A,1973-08-30 12:00:00,40.63606,-80.53528,8,1973,Ohio
206,6094,Report 6094: Child has sighting in cornfield near Sheridan.,Class A,1973-09-08 12:00:00,40.18,-86.1512,9,1973,Indiana
207,26888,Report 26888: Man recalls his encounter after riding his dirt bike as a young man near Bradford,Class A,1973-09-12 12:00:00,41.97226,-78.66863,9,1973,Pennsylvania
208,9765,Report 9765: Motorist and children have daylight sighting near Burns Flat.,Class A,1973-09-28 12:00:00,35.3011,-99.1702,9,1973,Oklahoma
209,3333,Report 3333: Large creature turned and stared at couple,Class A,1973-10-01 12:00:00,35.2483,-83.28265,10,1973,North Carolina
210,7731,Report 7731: Hunting Partners Have Early Morning Roadway Sighting,Class A,1973-10-15 12:00:00,39.92778,-122.1781,10,1973,California
211,4323,Report 4323: Two hunters hear nighttime vocalizations near Darrington,Class B,1973-10-20 12:00:00,48.2775,-121.8078,10,1973,Washington
212,7562,Report 7562: Hunter briefly observes a stationary upright animal before it runs away,Class A,1973-11-15 12:00:00,44.825,-118.415,11,1973,Oregon
213,24405,Report 24405: Man tells of his scary encounter while traveling Route 66 in a snow storm,Class A,1973-12-20 12:00:00,35.241,-111.8634,12,1973,Arizona
214,37553,Report 37553: Multiple childhood interactions recalled by a woman who grew up near Kalamazoo,Class A,1974-03-15 12:00:00,42.225,-85.6885,3,1974,Michigan
215,11328,Report 11328: Young girl has sighting near Milan,Class B,1974-04-15 12:00:00,36.0165,-88.76775,4,1974,Tennessee
217,11487,Report 11487: Security policeman has nighttime sighting at Myrtle Beach Air Force Base,Class A,1974-04-18 12:00:00,33.72,-78.9211,4,1974,South Carolina
218,14223,Report 14223: Possible night time sighting by hunters in a marsh near Port Clinton,Class B,1974-04-20 12:00:00,41.48962,-83.06977,4,1974,Ohio
219,2100,Report 2100: Witness recounts he and his friend's encounters with a strange creature along with strange sounds and footprint finds,Class B,1974-04-30 12:00:00,33.97005,-84.20175,4,1974,Georgia
220,26963,Report 26963: Blacksmith recalls seeing a creature come down a mountainside and shares a sketch he drew,Class A,1974-05-04 12:00:00,39.1611,-80.23375,5,1974,West Virginia
221,875,Report 875: Man has sighting near Alturas,Class A,1974-06-01 12:00:00,41.41,-120.6781,6,1974,California
222,6391,Report 6391: Camper sees sasquatch across Snake River,Class A,1974-06-15 12:00:00,45.9978,-116.9156,6,1974,Idaho
223,447,Report 447: Unusual incident... a horseback rider's close encounter,Class A,1974-06-15 12:00:00,34,-85,6,1974,Georgia
224,10653,Report 10653: Young bike riders see large animal cross road,Class A,1974-06-27 12:00:00,47.18556,-122.2917,6,1974,Washington
225,967,Report 967: Teenage dirt bike riders hear screams,Class B,1974-07-06 12:00:00,48.02611,-121.6406,7,1974,Washington
226,414,Report 414: Year long sightings by family,Class A,1974-07-15 12:00:00,26.5931,-80.21295,7,1974,Florida
228,45551,Report 45551: Recollection of setting up camp and observing a tall bi-pedal animal running near Palm Beach Gardens,Class B,1974-07-19 12:00:00,26.83656,-80.18501,7,1974,Florida
229,44837,Report 44837: Years of South Florida Skunk Ape stories supported by witness accounts and newspaper articles,Class A,1974-07-20 12:00:00,26.05091,-80.29457,7,1974,Florida
230,24620,Report 24620: Man recalls family experiencing possible intimidation near Ann Arbor,Class B,1974-07-30 12:00:00,42.2375,-83.67,7,1974,Michigan
231,27983,"Report 27983: Motorists encounter unusual creature on Highway 46 near Paso Robles, CA",Class A,1974-08-01 12:00:00,35.665,-120.55,8,1974,California
232,8621,Report 8621: Boy scout hears repeated screams,Class B,1974-08-15 12:00:00,45.4051,-121.424,8,1974,Oregon
233,2657,Report 2657: A tree stump moves closer to a group of young boys,Class A,1974-08-15 12:00:00,29.47035,-81.1273,8,1974,Florida
234,15744,Report 15744: Possible screams heard by campers near Indian Lake,Class B,1974-08-15 12:00:00,45.3712,-118.5518,8,1974,Oregon
235,11812,Report 11812: Twilight sighting on the west side of Lakeland,Class A,1974-09-01 12:00:00,28.00845,-81.93871,9,1974,Florida
236,7860,Report 7860: Hunter has daytime sighting near Dos Rios,Class A,1974-09-01 12:00:00,39.68833,-123.4817,9,1974,California
237,9954,Report 9954: Elk hunters find footprints on Stanley Butte.,Class B,1974-09-14 12:00:00,46.2404,-115.2088,9,1974,Idaho
238,43911,Report 43911: Memory told of screaming creature terrifying campers at Gold Basin Campground along the Mountain Loop Highway,Class B,1974-09-15 12:00:00,48.07834,-121.7363,9,1974,Washington
239,10151,Report 10151: Motorist has nighttime sighting of animal near Marshall.,Class A,1974-09-16 12:00:00,42.323,-85.05965,9,1974,Michigan
240,6496,Report 6496: Bicycling student has night encounter,Class A,1974-09-20 12:00:00,41.45,-71.5,9,1974,Rhode Island
241,1149,Report 1149: Late Afternoon sighting by motorist near Blue Springs,Class A,1974-09-30 12:00:00,40.1399,-96.7432,9,1974,Nebraska
242,1446,Report 1446: Deer hunters find footprints near Wahtum Lake.,Class B,1974-10-01 12:00:00,45.5666,-121.7745,10,1974,Oregon
243,24562,Report 24562: Man remembers running home when he and his friend spot a tall hairy creature near Woodinville,Class A,1974-10-16 12:00:00,47.75034,-122.1979,10,1974,Washington
244,7464,Report 7464: Deer hunter describes possible stalking on Pigeon Mountain.,Class B,1974-11-01 12:00:00,34.66029,-85.39171,11,1974,Georgia
245,6644,Report 6644: Deer hunters have daylight sighting near Seminole.,Class A,1974-11-04 12:00:00,35.26808,-96.60222,11,1974,Oklahoma
246,10660,Report 10660: Motorist has nighttime sighting of animal east of Lebo,Class A,1974-11-09 12:00:00,38.3908,-95.6491,11,1974,Kansas
247,13729,Report 13729: Logging crew has daytime sighting.,Class A,1974-11-15 12:00:00,42.28445,-124.2148,11,1974,Oregon
248,7386,"Report 7386: Observer hears scream changing to low ""demonic"" chuckle",Class B,1974-12-15 12:00:00,42.0288,-86.5153,12,1974,Michigan
249,27778,Report 27778: Possible late night campsite intrusion in the Ocala National Forest,Class B,1974-12-20 12:00:00,29.22079,-81.80539,12,1974,Florida
250,592,"Report 592: Two witnesses observed a large, black-brown human-like form  between Wiles Rd. and Sample Rd",Class A,1975-01-15 12:00:00,26.27395,-80.1937,1,1975,Florida
251,3143,Report 3143: Two children have encounter west of Benton,Class B,1975-04-04 12:00:00,34.52473,-92.70348,4,1975,Arkansas
252,1721,"Report 1721: Children find 19"" tracks in snow",Class B,1975-04-16 12:00:00,48.2688,-121.705,4,1975,Washington
253,1722,Report 1722: Creature sighted on White Horse Mt,Class A,1975-05-25 12:00:00,48.21167,-121.6769,5,1975,Washington
254,6706,Report 6706: Hikers see large print in Yolla Bolly Wilderness,Class B,1975-06-01 12:00:00,40.0625,-123.2208,6,1975,California
255,24241,Report 24241: Family has a strange and terrifying encounter while fishing in the Everglades National Park,Class B,1975-06-18 12:00:00,25.19935,-80.87379,6,1975,Florida
256,49084,Report 49084: Memory told of a 'Hairy Man' crossing Hwy. 27 north of Homestead,Class A,1975-06-20 12:00:00,25.54494,-80.47805,6,1975,Florida
257,26029,Report 26029: Recollection of a twilight encounter on Lake Keowee,Class A,1975-07-01 12:00:00,34.45025,-82.56786,7,1975,South Carolina
258,1341,"Report 1341: Family witness a large, hair covered creature eating food from their garden.",Class A,1975-07-01 12:00:00,30.2464,-89.6111,7,1975,Mississippi
259,3702,Report 3702: Daytime sighting by swimmers in Wolf Creek area,Class A,1975-07-01 12:00:00,42.375,-123.3833,7,1975,Oregon
260,4237,Report 4237: Three youths have a menacing encounter near Beckley,Class B,1975-07-04 12:00:00,37.80531,-81.14714,7,1975,West Virginia
261,2050,Report 2050: While rowing a boat across a lake in Huntsville Park witness saw a dark animal in the form of a man running away,Class A,1975-07-04 12:00:00,30.61667,-95.52722,7,1975,Texas
262,4763,Report 4763: Hikers find footprint in Great Smoky Mountains National Park.,Class B,1975-07-12 12:00:00,35.5131,-83.5582,7,1975,North Carolina
263,15075,Report 15075: School teacher remembers his close encounter with a sasquatch while hunting near Cape Fair,Class A,1975-07-15 12:00:00,36.67065,-93.65774,7,1975,Missouri
264,26587,Report 26587: Woman recalls afternoon sighting near the outskirts of Marion.,Class A,1975-07-15 12:00:00,40.54919,-85.69739,7,1975,Indiana
265,49019,Report 49019: Memory told of a close daylight encounter while playing near Mikana,Class A,1975-07-15 12:00:00,45.58858,-91.59938,7,1975,Wisconsin
266,1366,Report 1366: huge human-like handprint found on top of a vandalized sign.,Class A,1975-07-20 12:00:00,39.26944,-106.3833,7,1975,Colorado
267,4403,Report 4403: Late night encounter by young campers in Maple Valley Wa,Class B,1975-07-31 12:00:00,47.40667,-122.0375,7,1975,Washington
268,40784,Report 40784: Memory told of a large hairy biped approaching a family as they dumped their garbage near Waukeenah,Class A,1975-08-01 12:00:00,30.40785,-83.96767,8,1975,Florida
269,10765,Report 10765: Youth watches animal hiding behind trees near Nolin Lake.,Class B,1975-08-09 12:00:00,37.3817,-86.1358,8,1975,Kentucky
270,927,"Report 927: Campers hear loud animal ""roars"", from inside the treeline of a clear-cut",Class B,1975-08-10 12:00:00,47.8498,-120.9591,8,1975,Washington
271,4681,"Report 4681: Nighttime sighting by teens, near Meridian",Class A,1975-08-14 12:00:00,32.2714,-88.7496,8,1975,Mississippi
272,1830,Report 1830: Two separate sighting reports of a creature,Class C,1975-08-25 12:00:00,34.1288,-86.68,8,1975,Alabama
273,14271,Report 14271: Possible tracks noticed by hunters in the Everglades outside Everglades City,Class B,1975-09-01 12:00:00,26.0645,-81.3615,9,1975,Florida
274,5260,Report 5260: Family sees prints near Crescent City,Class B,1975-09-01 12:00:00,41.75611,-124.2006,9,1975,California
275,3044,Report 3044: Second-hand report of creature looking in at woman through window,Class C,1975-09-10 12:00:00,43.98694,-91.33662,9,1975,Wisconsin
276,7954,Report 7954: Boater finds footprints on bank of Rogue River,Class B,1975-09-15 12:00:00,42.6425,-124.0255,9,1975,Oregon
277,10919,Report 10919: Youth has sighting from his backyard on Air Force Base,Class A,1975-09-15 12:00:00,34.87,-92.12,9,1975,Arkansas
278,4095,Report 4095: Surprise observation by two hunters on the opposite bank of the river,Class B,1975-09-20 12:00:00,34.47,-92.58,9,1975,Arkansas
279,6983,Report 6983: Hunter has early morning sighting near Challis,Class A,1975-10-01 12:00:00,44.25028,-114.7503,10,1975,Idaho
280,40316,Report 40316: Memory told of a possible encounter while coon hunting near Houston,Class B,1975-10-01 12:00:00,46.73252,-94.68516,10,1975,Minnesota
281,113,"Report 113: Son and friend find footprints. Later something stalks them along riverbank, incident retold by his father",Class B,1975-10-01 12:00:00,37.44208,-95.35479,10,1975,Kansas
282,28453,Report 28453: Reliable military man describes childhood memory: Coon hounds flee a possible sasquatch 13 miles south of Muncie,Class B,1975-10-01 12:00:00,39.98705,-85.3149,10,1975,Indiana
283,1724,Report 1724: Bonney Lake,Class A,1975-10-11 12:00:00,47.1772,-122.1852,10,1975,Washington
284,41318,Report 41318: Memory told of roadside sighting at night south of Rantoul,Class A,1975-10-11 12:00:00,40.26916,-88.1033,10,1975,Illinois
285,40842,Report 40842: Memory told of a possible sighting along Happy Hollow Road near Gorham.,Class B,1975-10-11 12:00:00,37.68393,-89.48825,10,1975,Illinois
286,1730,Report 1730: Lake Tapps,Class A,1975-10-13 12:00:00,47.2416,-122.1833,10,1975,Washington
287,3483,"Report 3483: Nighttime sighting outside farm house, west of Prairie Home (the town) near Pisgah Creek",Class A,1975-10-15 12:00:00,38.81124,-92.59781,10,1975,Missouri
288,23771,Report 23771: Young hunter sees and hears a sasquatch near Applegate.,Class A,1975-10-25 12:00:00,42.02106,-123.2725,10,1975,Oregon
289,1270,"Report 1270: Newspaper article about ""The Lockridge Monster.""",Class A,1975-10-28 12:00:00,40.995,-91.75205,10,1975,Iowa
290,43648,Report 43648: Memory told of possible activity while trapping in Horicon Marsh,Class B,1975-11-01 12:00:00,43.425,-88.68,11,1975,Wisconsin
291,16683,Report 16683: Daylight sighting at edge of woods near fishing hole outside Jacksonville,Class A,1975-11-01 12:00:00,30.2809,-81.83705,11,1975,Florida
292,1326,Report 1326: Early morning sighting by a hunter,Class A,1975-11-15 12:00:00,37.64103,-97.40294,11,1975,Kansas
293,3300,Report 3300: Trapper recalls large footprints he found while trapping near Pinckneyville.,Class B,1975-12-06 12:00:00,38.04813,-89.30435,12,1975,Illinois
294,2805,"Report 2805: Early morning sighting of creature looking at ""something"" in the snow in Vandalia.",Class A,1975-12-15 12:00:00,38.98,-89.136,12,1975,Illinois
295,7356,Report 7356: Two servicemen from Hunter Army Airfield describe tent stalking incident on uninhabited Little Tybee Island,Class B,1976-01-02 12:00:00,31.98125,-80.89485,1,1976,Georgia
296,6394,"Report 6394: Possible tracks found in snow near Albia, Iowa",Class B,1976-01-14 12:00:00,41.02174,-92.73979,1,1976,Iowa
297,1925,"Report 1925: Strong odor, crunching footsteps and large human-like tracks found in snow",Class A,1976-01-30 12:00:00,48.36361,-120.1211,1,1976,Washington
299,62297,"Report 62297: Two young campers get stalked at night, then a Sasquatch sighting the next morning near John J. Audubon Historic Trail in Mark Twain National Forest",Class A,1976-04-10 12:00:00,37.718,-90.177,4,1976,Missouri
300,7658,Report 7658: Hiker encounters large footprints,Class B,1976-05-15 12:00:00,44.1263,-121.3338,5,1976,Oregon
301,55573,Report 55573: Long term possible Sasquatch interactions on a farm near New Era beginning in the mid 1970's,Class B,1976-06-15 12:00:00,43.55,-86.325,6,1976,Michigan
302,36006,Report 36006: Man recalls multiple experiences (including a daylight sighting) as a youth near Gainesville,Class A,1976-06-15 12:00:00,34.36153,-83.87177,6,1976,Georgia
303,1635,Report 1635: Travelers watch tan-brown 5-6 foot hairy creature drink from stream with cupped hands,Class A,1976-06-15 12:00:00,45.5,-118.42,6,1976,Oregon
304,1684,Report 1684: Husband and wife harassed by unseen creatures at their camp late at night,Class B,1976-06-16 12:00:00,48.78056,-122.1483,6,1976,Washington
305,7124,Report 7124: Boy Scout sees part of retreating sasquatch,Class A,1976-06-30 12:00:00,45.9957,-118.1253,6,1976,Oregon
306,1432,Report 1432:   Someone or something walks by house and peers from around a tree,Class B,1976-07-10 12:00:00,45.5258,-91.87774,7,1976,Wisconsin
307,23882,Report 23882: Woman recounts incident involving her father near town of Doyline on Lake Bistinue,Class B,1976-07-14 12:00:00,32.45763,-93.36627,7,1976,Louisiana
308,10861,Report 10861: Teenagers wading down the Olentangy River at night have a sighting south of Delaware.,Class A,1976-07-15 12:00:00,40.26494,-83.0556,7,1976,Ohio
309,2628,Report 2628: Family encounters upright creature while camping at Silver Falls,Class A,1976-07-15 12:00:00,44.8633,-122.6397,7,1976,Oregon
310,39314,Report 39314: Teenagers unnerved by possible knocking in Oak Creek,Class B,1976-07-15 12:00:00,42.86631,-87.84023,7,1976,Wisconsin
311,2381,Report 2381: Boy has evening sighting while bike riding with brothers near Booneboro River,Class A,1976-08-01 12:00:00,37.89508,-84.1989,8,1976,Kentucky
312,8494,Report 8494: A woman recounts her childhood sighting near Atwood Lake,Class A,1976-08-01 12:00:00,40.54605,-81.26217,8,1976,Ohio
313,4966,"Report 4966: Large footprints, area of matted grass and sounds of bipedal footsteps noted along shores of Aurora Lake",Class B,1976-08-01 12:00:00,41.31405,-81.38112,8,1976,Ohio
314,1356,Report 1356: Husband and wife observe sasquatch at river's edge,Class A,1976-08-01 12:00:00,38.655,-90.675,8,1976,Missouri
315,24435,Report 24435: Man sees silhouette of an 8'-9' tall creature looking back at him from a cornfield near Canton,Class B,1976-08-10 12:00:00,40.79362,-81.32337,8,1976,Ohio
316,62340,Report 62340: Daylight sighting of grey-white Sasquatch ~15mi west of Russellville,Class A,1976-08-14 12:00:00,35.186,-93.206,8,1976,Arkansas
317,115,Report 115: Young girls have daylight sighting near their home,Class A,1976-08-15 12:00:00,30.98555,-85.6489,8,1976,Florida
318,1318,Report 1318: Early evening sighting in Canyon City,Class A,1976-08-25 12:00:00,44.39104,-118.9491,8,1976,Oregon
319,11016,Report 11016: Young witness has encounter during thunderstorm near Cave Junction.,Class A,1976-09-01 12:00:00,42.1533,-123.5381,9,1976,Oregon
320,8587,"Report 8587: A childhood encounter just outside of Wadsworth, Ohio",Class A,1976-09-01 12:00:00,41.02572,-81.77677,9,1976,Ohio
321,1132,Report 1132: Witness noticed creature was human shaped.,Class B,1976-09-01 12:00:00,39.1405,-91.419,9,1976,Missouri
322,10718,Report 10718: Campers hear a vocalization near Tenaya Lake,Class B,1976-09-01 12:00:00,37.83074,-119.4626,9,1976,California
324,28788,Report 28788: Memory told of close encounter with a sasquatch while picking up clay pigeons near Sumner,Class A,1976-09-15 12:00:00,47.17295,-122.2214,9,1976,Washington
325,57471,Report 57471: Memory told of a close daylight encounter with a white Bigfoot while riding a motorcycle inside Camp Joseph T. Robinson,Class A,1976-09-15 12:00:00,34.92336,-92.30519,9,1976,Arkansas
326,28545,Report 28545: Man tells of the strange occurrences and his sighting as a teenager near Buckhart,Class A,1976-09-18 12:00:00,39.7721,-89.4691,9,1976,Illinois
327,2159,Report 2159: Sighting by a man on horseback of two large creatures near Gladewater,Class A,1976-10-01 12:00:00,32.58125,-94.86958,10,1976,Texas
328,14525,Report 14525: Evening encounter with fisherman laying catfish lines on the Alapaha River,Class A,1976-10-08 12:00:00,31.24842,-83.13654,10,1976,Georgia
329,30462,Report 30462: Witness remembers several incidents including a close encounter on a dark road near Danville,Class A,1976-10-15 12:00:00,36.5587,-79.36079,10,1976,Virginia
330,7185,Report 7185: Teens have scary encounter in abandoned creamery near Sussex,Class B,1976-10-18 12:00:00,41.2145,-74.5995,10,1976,New Jersey
331,23836,Report 23836: Several incidents experienced by father and son outside St. Louis,Class A,1976-10-20 12:00:00,38.73802,-90.53249,10,1976,Missouri
332,4837,Report 4837: Rabbit hunter witness's a massive creature running through the woods,Class A,1976-11-01 12:00:00,41.81902,-80.58163,11,1976,Ohio
333,6267,Report 6267: Two young men are confronted in broad daylight by a large creature near Falcon,Class A,1976-11-15 12:00:00,35.18637,-78.63611,11,1976,North Carolina
334,51180,Report 51180: Man recalls strange occurrences as a youngster in Weatherford,Class B,1976-11-30 12:00:00,32.75,-97.75,11,1976,Texas
335,13378,"Report 13378: Menacing commotion at night, tracks in snow the next morning, out Yadkinville",Class B,1976-12-12 12:00:00,36.134,-80.66,12,1976,North Carolina
336,35721,Report 35721: Recollection of hearing frightening vocalizations in the Fort Worth Nature Center,Class B,1976-12-23 12:00:00,32.84,-97.445,12,1976,Texas
337,20457,Report 20457: Nighttime sighting by Air Force personnel near Seney National Wildlife Refuge,Class A,1977-01-01 12:00:00,46.34575,-85.95865,1,1977,Michigan
338,4556,Report 4556: Midnight sighting by motorist on Coy Rd,Class A,1977-01-01 12:00:00,41.34728,-84.54476,1,1977,Ohio
339,7097,Report 7097: Campers hear late night vocalizations at Carlon Station,Class B,1977-01-10 12:00:00,37.81269,-119.8609,1,1977,California
340,374,Report 374: Two women driving to work are surprised to see a very large hair covered biped running along the side of their car.,Class A,1977-02-01 12:00:00,39.88653,-81.27132,2,1977,Ohio
341,27341,Report 27341: Childhood memory of a figure filling the window of her home near Evening Shade,Class B,1977-03-15 12:00:00,37.5656,-92.1426,3,1977,Missouri
342,4595,"Report 4595: Late night sighting by family along Hwy 126, near McKenzie Bridge",Class A,1977-03-19 12:00:00,44.23861,-122.0505,3,1977,Oregon
343,1342,"Report 1342: Child sees a large, dark face staring at him from the bushes.",Class A,1977-04-30 12:00:00,32.3372,-88.74805,4,1977,Mississippi
344,21154,Report 21154: Couple has possible daylight encounter near Proxy Falls,Class B,1977-05-01 12:00:00,44.15568,-121.9531,5,1977,Oregon
345,1075,Report 1075: Teens fire at big black thing peeking in window of home,Class A,1977-05-01 12:00:00,38.49833,-107.8833,5,1977,Colorado
346,7399,Report 7399: Large Hairy Arm Knocks in Window Screen,Class A,1977-05-15 12:00:00,41.93,-84.35389,5,1977,Michigan
347,4970,Report 4970: Case report about a sighting by a boy and local rumors about a bigfoot in area.,Class A,1977-05-18 12:00:00,39.70042,-84.62567,5,1977,Ohio
348,33358,Report 33358: Military officer recalls possible daylight sighting while driving in the Croatan National Forest,Class B,1977-05-21 12:00:00,34.79914,-77.10508,5,1977,North Carolina
349,928,Report 928: Hikers find tracks and a possible nest,Class B,1977-05-22 12:00:00,47.4644,-120.6705,5,1977,Washington
350,22905,Report 22905: Man recalls sighting as a young boy on his way to go fishing in John A. Roebling Park near Bordentown,Class A,1977-06-03 12:00:00,40.18478,-74.72261,6,1977,New Jersey
351,63193,Report 63193: Brazos River campers encounter powerful vocalizations at close range.,Class B,1977-06-15 12:00:00,32.85,-98.375,6,1977,Texas
352,29032,Report 29032: Memory told of a mid-afternoon encounter along the Flatrock River,Class A,1977-06-15 12:00:00,39.45697,-85.5481,6,1977,Indiana
353,5637,Report 5637: Campers have frightening experience in the Marble Mountains Wilderness,Class B,1977-07-01 12:00:00,41.31917,-123.1778,7,1977,California
354,2430,"Report 2430:  Incident near a horse corral in the mountains of eastern Kentucky, 10 miles north of Hazard.",Class A,1977-07-01 12:00:00,37.37814,-83.25562,7,1977,Kentucky
355,4366,Report 4366: Hikers have late night experience near Spicer,Class B,1977-07-01 12:00:00,38.45861,-120.0397,7,1977,California
356,1510,Report 1510: Brothers have early evening sighting near Lee Vining,Class A,1977-07-01 12:00:00,38.04806,-119.2642,7,1977,California
357,22570,Report 22570: Family hears loud whooping for three consecutive nights near Drain.,Class B,1977-07-01 12:00:00,43.6744,-123.2675,7,1977,Oregon
358,10533,Report 10533: Hikers have daylight sighting west of Pikes Peak,Class A,1977-07-04 12:00:00,38.826,-105.1146,7,1977,Colorado
359,29336,Report 29336: Recollection of a late night road crossing while driving near Branchville,Class A,1977-07-09 12:00:00,41.13498,-74.80315,7,1977,New Jersey
360,1614,Report 1614: Young horseback rider has a face-to-face encounter in the Rattlesnake Wilderness Area,Class A,1977-07-14 12:00:00,46.97694,-113.8381,7,1977,Montana
361,1460,Report 1460: Two Large Creatures Were Seen Coming Out of Creek,Class A,1977-07-15 12:00:00,31.1375,-92.4976,7,1977,Louisiana
362,5350,Report 5350: College students get approached by sasquatch and shoot at it,Class B,1977-07-15 12:00:00,44.8623,-122.2728,7,1977,Oregon
363,2789,Report 2789: Camper says a sasquatch entered a cabin of sleeping girls.,Class B,1977-07-15 12:00:00,35.00278,-95.34111,7,1977,Oklahoma
364,1682,Report 1682: Young boy awakened by a loud roaring scream (Part 3),Class A,1977-07-29 12:00:00,46.803,-122.4133,7,1977,Washington
365,24393,"Report 24393: Man remembers a late night ""camp-circling"" along with several other young Marines outside of Albany",Class B,1977-07-30 12:00:00,31.30062,-84.02254,7,1977,Georgia
366,7555,Report 7555: Two Young Fishermen Have Mid-day Encounter at Lake Shasta,Class A,1977-08-01 12:00:00,40.8875,-122.3775,8,1977,California
367,1630,Report 1630: Separate Iowa incidents over time in Floyd County area,Class A,1977-08-01 12:00:00,43.17215,-92.76577,8,1977,Iowa
368,4583,"Report 4583: Early afternoon sighting by motorist on US Hwy 2, near Skykomish",Class A,1977-08-14 12:00:00,47.6181,-121.3114,8,1977,Washington
369,1148,"Report 1148: Family camping encounter large, fur covered creature. Footprints are discovered at the campsite",Class A,1977-08-15 12:00:00,37.9939,-93.8794,8,1977,Missouri
370,496,Report 496: Campers see large figure cross river in moonlight,Class A,1977-08-15 12:00:00,37.8597,-91.432,8,1977,Missouri
371,7393,Report 7393: Teenage boys have sighting at night near Lake Myers,Class A,1977-08-15 12:00:00,35.91965,-80.6282,8,1977,North Carolina
372,4137,Report 4137: Hairy 7-8' tall creature confronts fisherman in moonlight,Class A,1977-08-15 12:00:00,31.11611,-98.055,8,1977,Texas
373,1530,Report 1530: Fly Fisherman sees a hairy bipedal creature while trout fishing,Class A,1977-08-16 12:00:00,46.76472,-111.8861,8,1977,Montana
374,25233,Report 25233: Bowhunter recalls hearing possible intimidation at night while returning to camp in Farmington Canyon,Class B,1977-08-22 12:00:00,40.9744,-111.8189,8,1977,Utah
375,1749,Report 1749: Three brownish figures seen moving on nearby foothill,Class A,1977-08-27 12:00:00,48.8178,-122.1656,8,1977,Washington
376,2180,Report 2180: Two sisters witness bipedal animal walk through yard,Class A,1977-09-01 12:00:00,37.11433,-93.71506,9,1977,Missouri
377,5072,Report 5072: Witness reports seeing footprints as a child,Class B,1977-09-01 12:00:00,42.9074,-94.3841,9,1977,Iowa
378,9796,Report 9796: Man recalls multiple witness incident as a teenager camping south of Cloquet,Class B,1977-09-03 12:00:00,46.69303,-92.49979,9,1977,Minnesota
379,3022,"Report 3022: Nighttime encounter with campers near Duchesne, in Timber Canyon",Class A,1977-09-15 12:00:00,40.028,-110.9315,9,1977,Utah
380,1811,"Report 1811: Witness and cousin see ""hairy brown man-like creature"" watching them",Class A,1977-09-15 12:00:00,43.59611,-84.42722,9,1977,Michigan
381,4093,Report 4093: Daytime sighting between Pocahontas and Imboden,Class A,1977-09-25 12:00:00,36.19791,-91.1125,9,1977,Arkansas
382,39852,Report 39852: Memory told of a possible sighting while parked in a car near Granite City,Class B,1977-09-26 12:00:00,38.74784,-90.14547,9,1977,Illinois
383,56212,"Report 56212: Memory told of a scary, daytime encounter while frog hunting near Ranger",Class B,1977-09-30 12:00:00,32.375,-98.68,9,1977,Texas
385,1955,Report 1955: Witness reports loud screaming near Strawberry,Class B,1977-10-01 12:00:00,38.19753,-119.9811,10,1977,California
386,28197,Report 28197: Man recalls his possible nighttime encounter while instructing at Ft. Lewis,Class B,1977-10-01 12:00:00,46.98578,-122.6997,10,1977,Washington
387,726,Report 726: A hitchhiker reports seeing a bigfoot in a forested area off U.S. 441,Class A,1977-10-05 12:00:00,29.0599,-82.05835,10,1977,Florida
388,11506,Report 11506: Youth watches while bipedal creature pushes down trees,Class A,1977-10-15 12:00:00,41.91826,-80.54177,10,1977,Ohio
389,65807,Report 65807: Late night sighting on Highway 101 in between Forks and Kalaloch,Class A,1977-10-15 12:00:00,47.72142,-124.3985,10,1977,Washington
390,16470,Report 16470: Husband and wife recall daylight sighting while scouting for deer near Cave Spring off of Monte Cristo,Class A,1977-10-19 12:00:00,41.43135,-111.4988,10,1977,Utah
391,47378,Report 47378: Memory told of a close nighttime encounter while hunting rabbits in a rural backyard near Palm Harbor,Class A,1977-10-21 12:00:00,28.09538,-82.74918,10,1977,Florida
392,36702,Report 36702: Memory told of a possible sighting at dawn by a hunter in his tree stand southeast of Pontiac,Class B,1977-10-22 12:00:00,40.82546,-88.50196,10,1977,Illinois
393,4975,Report 4975: Sighting at Camp Oyo Boy Scout Camp on Rt. 125,Class B,1977-10-31 12:00:00,38.77727,-83.18179,10,1977,Ohio
394,1501,"Report 1501: Two witnesses see a large, black creature while loading firewood on a truck",Class A,1977-11-15 12:00:00,32.8057,-92.40895,11,1977,Louisiana
395,728,"Report 728: a close-range, daytime sighting by a 67-year-old Baptist minister",Class A,1977-11-15 12:00:00,29.1951,-81.90875,11,1977,Florida
396,21951,Report 21951: Man describes figure looking into window outside Homestead,Class A,1977-11-15 12:00:00,25.51665,-80.43689,11,1977,Florida
397,1332,"Report 1332: newspaper article about a sighting by a jogger. Later, a sherif deputy found a track at the scene of the incident.",Class A,1977-11-25 12:00:00,37.192,-95.7455,11,1977,Kansas
398,20562,Report 20562: Man describes possible sighting in childhood near Sandwich,Class B,1977-12-15 12:00:00,41.73125,-70.48792,12,1977,Massachusetts
399,8717,Report 8717: Snowmobilers have daylight sighting near Ashburnham,Class A,1977-12-17 12:00:00,42.6688,-71.9023,12,1977,Massachusetts
400,1880,Report 1880: Man and his children find large barefoot tracks in snow,Class A,1977-12-29 12:00:00,48.1278,-121.7692,12,1977,Washington
401,2887,"Report 2887: Loud, High-pitched Animal Screams Heard Outside a Cabin Late at Night",Class B,1977-12-30 12:00:00,38.19753,-119.9811,12,1977,California
402,15895,"Report 15895: Possible vocalization heard in Marion, Illinois",Class B,1977-12-31 12:00:00,37.72735,-88.9487,12,1977,Illinois
403,3293,"Report 3293: Three fox hunters witness a ""Freak of nature bear"" step over a fence and walk into a thicket.",Class A,1978-01-01 12:00:00,40.4764,-82.80257,1,1978,Ohio
404,24032,Report 24032: Multiple witness motorist sighting in daylight at the edge of the Alafia River,Class A,1978-01-01 12:00:00,27.7752,-81.9755,1,1978,Florida
405,8836,"Report 8836: Brothers have sighting in their backyard during the ""Blizzard of 1978.""",Class A,1978-02-05 12:00:00,41.44442,-81.20629,2,1978,Ohio
406,11147,Report 11147: Storm watchers on tower observe animal on beach.,Class A,1978-02-15 12:00:00,46.2262,-124.0133,2,1978,Oregon
407,1312,"Report 1312:  Chief of police in Chetopa finds two and a half miles of tracks that measured 17 inches in length, 5 5/8 in width. Thousands of curious people came out to look at the tracks. The incident was reported on the local TV news",Class A,1978-02-23 12:00:00,37.0504,-95.0802,2,1978,Kansas
408,3612,"Report 3612: Two fishermen have truck shaken early one morning, outside of Auburn",Class B,1978-04-01 12:00:00,38.90222,-121.0803,4,1978,California
409,23760,Report 23760: Memory told of possible vocalizations and rocks thrown at Lake Kinkaid.,Class B,1978-04-02 12:00:00,37.78048,-89.45728,4,1978,Illinois
410,799,"Report 799: Person fishing recounts story of his encounter with a large, bipedal creature that was wading in the water",Class A,1978-04-15 12:00:00,34.92855,-87.1105,4,1978,Alabama
411,41916,Report 41916: Memory told of daylight sighting while mushroom hunting along Happy Hollow Road near Gorham,Class A,1978-04-21 12:00:00,37.68485,-89.49155,4,1978,Illinois
412,1651,"Report 1651: Daylight observation from Beacon Rock, along the Columbia River",Class A,1978-04-29 12:00:00,45.62778,-122.0194,4,1978,Washington
413,1731,Report 1731: 25-50 Footprints found near Orting,Class B,1978-04-30 12:00:00,47.0945,-122.0874,4,1978,Washington
414,2901,Report 2901: Couple in car terrified by loud howl/scream near Carlinville.,Class B,1978-05-01 12:00:00,39.115,-89.952,5,1978,Illinois
415,1241,Report 1241: Two gov't geologists witness hominoid creature cross road about 30 min. east of Yellowstone Park's East Gate,Class A,1978-05-15 12:00:00,44.49817,-109.6824,5,1978,Wyoming
416,62851,Report 62851: Woman experienced terrifying close encounter as a child and later as a teenager.,Class A,1978-05-15 12:00:00,33.66554,-93.56799,5,1978,Arkansas
417,3421,Report 3421: Family has unusual experience outside Grass Valley,Class A,1978-06-01 12:00:00,39.21278,-120.8908,6,1978,California
418,2450,"Report 2450: While hiking with friends, eleven year old girl almost runs into 6' hairy creature",Class A,1978-06-01 12:00:00,39.78594,-82.29162,6,1978,Ohio
419,32435,Report 32435: Memories told of activity over several years at a family home near Oglethorpe,Class A,1978-06-07 12:00:00,32.2462,-84.08932,6,1978,Georgia
420,18632,Report 18632: Woman describes childhood sighting (multi-witness) on abondonned RR bed outside Barnwell,Class A,1978-06-08 12:00:00,33.245,-81.359,6,1978,South Carolina
421,2219,Report 2219: Children chased from woods by a seven foot tall creature,Class A,1978-06-15 12:00:00,34.6423,-83.4192,6,1978,Georgia
422,25432,Report 25432: Man relates a series of encounters with a white bigfoot near Obion,Class A,1978-06-17 12:00:00,36.26451,-89.25397,6,1978,Tennessee
423,8944,Report 8944: Mini-bike rider has afternoon encounter near Fulton,Class A,1978-06-20 12:00:00,40.46339,-82.82576,6,1978,Ohio
424,7003,Report 7003: Truck driver has brief roadside sighting,Class A,1978-06-21 12:00:00,47.4259,-123.8763,6,1978,Washington
425,96,Report 96: Young camper frightened by large hand gathering berries,Class B,1978-06-25 12:00:00,43.7827,-123.9599,6,1978,Oregon
426,2398,"Report 2398: Sighting by a fisherman at night near Kilgore, and separate nighttime sighting by a family in a mobilehome",Class B,1978-06-30 12:00:00,32.4125,-94.81806,6,1978,Texas
427,4484,"Report 4484: A series of sightings, screams, and smells near an abandoned strip mine",Class A,1978-07-01 12:00:00,40.67979,-81.51075,7,1978,Ohio
428,23481,Report 23481: Juvenile Bigfoot crosses road and clears a fence near Fowlerville,Class A,1978-07-01 12:00:00,42.68505,-84.04025,7,1978,Michigan
429,6724,"Report 6724: Two young campers have frightful, dawn encounter near Cave Junction",Class B,1978-07-01 12:00:00,42.16298,-123.6481,7,1978,Oregon
430,3180,"Report 3180: Early evening sighting by two children, near Layman",Class A,1978-07-04 12:00:00,39.40877,-81.73172,7,1978,Ohio
431,10260,Report 10260: Four climbers report repeated vocalizations,Class B,1978-07-04 12:00:00,48.27011,-115.6418,7,1978,Montana
432,12067,Report 12067: Youth has sighting while fishing on Kansas River near Topeka,Class A,1978-07-08 12:00:00,39.072,-95.747,7,1978,Kansas
433,1325,"Report 1325: Fisherman hears heavy breathing ,turns and sees tall man-like creature",Class A,1978-07-10 12:00:00,37.52947,-97.60829,7,1978,Kansas
434,6643,Report 6643: Mother and son see sasquatch closeup from road,Class A,1978-07-15 12:00:00,41.432,-71.65183,7,1978,Rhode Island
435,33887,Report 33887: Retired Military Policeman remembers strange incidents while on guard duty at Fort Belvoir,Class B,1978-07-15 12:00:00,38.70819,-77.17868,7,1978,Virginia
436,1459,Report 1459: Witness looked  up into the eyes of Bigfoot,Class A,1978-07-15 12:00:00,31.3799,-92.37835,7,1978,Louisiana
437,31444,Report 31444: Woman recalls being paralyzed by fear during childhood sighting near Lake Hudson State Park,Class A,1978-07-15 12:00:00,41.871,-84.2995,7,1978,Michigan
438,7439,Report 7439: Fisherman observes large rock flung into Hamma Hamma River,Class B,1978-07-15 12:00:00,47.5958,-123.1208,7,1978,Washington
439,1301,Report 1301: Three witnesses have daytime sighting near Strawberry,Class A,1978-07-30 12:00:00,38.19753,-119.9811,7,1978,California
441,4103,Report 4103: Daytime sighting on Route 17 near Church View,Class A,1978-08-01 12:00:00,37.72693,-76.6658,8,1978,Virginia
442,8406,"Report 8406: Encounters with a hairy creature in the same area as the well known ""Minerva monster flap.""",Class A,1978-08-01 12:00:00,40.7343,-81.15622,8,1978,Ohio
443,28370,Report 28370: Memory told of a possible encounter and footprint found along Horse Creek north of Pawnee,Class B,1978-08-01 12:00:00,39.65749,-89.56981,8,1978,Illinois
444,1090,Report 1090: Girl has daytime sighting near Twain Harte,Class A,1978-08-01 12:00:00,38.06615,-120.1877,8,1978,California
445,29055,Report 29055: Young girl recounts two encounters at the family farm near Chehalis,Class A,1978-08-05 12:00:00,46.63477,-122.7746,8,1978,Washington
446,1344,Report 1344: while playing tag with several other children witness saw a white hairy creature.,Class A,1978-08-06 12:00:00,33.50025,-88.40335,8,1978,Mississippi
448,37044,Report 37044: Memory told of a daylight sighting while fishing a creek near Crescent Lake Junction,Class A,1978-08-15 12:00:00,43.48257,-121.9104,8,1978,Oregon
449,31427,Report 31427: Memory of a possible night-time sighting as a youth playing 'Hide and Go Seek' in Holden Village,Class B,1978-08-15 12:00:00,48.19984,-120.7744,8,1978,Washington
450,912,"Report 912: While observing a footprint,  youth looks off the path to see shiny haired creature looking at him",Class A,1978-08-15 12:00:00,37.7764,-83.67952,8,1978,Kentucky
451,33098,Report 33098: Man recalls his encounter that included stomping and tree shaking at Dodge Point,Class B,1978-08-16 12:00:00,37.75705,-109.3125,8,1978,Utah
452,3269,Report 3269: Matching vocalizations heard a decade apart,Class B,1978-08-17 12:00:00,37.41098,-85.26247,8,1978,Kentucky
454,10632,Report 10632: Young boy observes animal chasing family horses,Class A,1978-08-21 12:00:00,40.97015,-78.42314,8,1978,Pennsylvania
455,4977,Report 4977: Ron Schaffner case report: The 1978 Minerva Flap,Class A,1978-08-21 12:00:00,40.74451,-81.0758,8,1978,Ohio
456,27908,Report 27908: Man recalls his 1978 close encounter with a large hair covered creature in Wilkesboro,Class A,1978-08-24 12:00:00,36.31126,-81.30889,8,1978,North Carolina
457,4475,Report 4475: Nighttime sighting by motorist between Barton and Carver,Class A,1978-08-29 12:00:00,45.3894,-122.4163,8,1978,Oregon
458,7431,Report 7431: Nine year old playing hide and seek comes face to face with a small ape-like creature,Class A,1978-09-01 12:00:00,41.10765,-81.4311,9,1978,Ohio
459,4972,Report 4972: Vocalizations heard by fisherman on Twin Creek,Class B,1978-09-01 12:00:00,39.64146,-84.48506,9,1978,Ohio
460,33137,Report 33137: Husband and wife have bedtime visitors at their window near Emily,Class B,1978-09-01 12:00:00,46.78149,-93.81888,9,1978,Minnesota
461,1268,"Report 1268: More sightings of a strange creature centering around the town of Ottosen. Other stories told about strange sounds, footprints and animal mutilatations.",Class A,1978-09-12 12:00:00,42.8674,-94.356,9,1978,Iowa
462,7676,Report 7676: Hunters have strange night experiences near Groundhog Meadow,Class B,1978-09-15 12:00:00,38.2395,-119.8792,9,1978,California
463,2383,"Report 2383: Tall, hairy creature observed standing near a hitching post near family barn..",Class A,1978-09-30 12:00:00,38.44148,-85.0016,9,1978,Kentucky
464,4960,Report 4960: Sighting by motorists along Poe Rd,Class B,1978-09-30 12:00:00,41.09302,-81.82391,9,1978,Ohio
465,50123,"Report 50123: Audio recording of possible screams, growls, and fight with a dog from the Late 70's near Prosperity",Class B,1978-10-01 12:00:00,40.04755,-80.25645,10,1978,Pennsylvania
466,3780,"Report 3780: So. Oregon man hears late night footsteps around mobile home, by Jump-off Joe Creek Rd. near Grants Pass",Class B,1978-10-01 12:00:00,42.56805,-123.3322,10,1978,Oregon
467,1653,Report 1653: Husband and wife have late night sighting on Highway 299,Class A,1978-10-01 12:00:00,40.63556,-122.7325,10,1978,California
468,20254,Report 20254: Possible interacting vocalizations heard by hunter near Hyrum,Class B,1978-10-07 12:00:00,41.6359,-111.6149,10,1978,Utah
469,35293,Report 35293: Daylight observation remembered of a Bigfoot holding a baby pig near Andalusia,Class A,1978-10-10 12:00:00,31.34781,-86.54527,10,1978,Alabama
470,48013,Report 48013: Memory told of a close daylight encounter behind a home outside Sandy Lake,Class A,1978-10-15 12:00:00,41.21365,-80.26563,10,1978,Pennsylvania
471,12576,Report 12576: Elk hunters find series of tracks in Mt. Zirkel Wilderness,Class B,1978-10-18 12:00:00,40.55415,-106.7084,10,1978,Colorado
472,28516,Report 28516: Memory told of a daytime sighting near Edwardsville,Class A,1978-10-21 12:00:00,38.7774,-90.012,10,1978,Illinois
473,30384,Report 30384: Cousins view a large biped figure on opening day near Virginia City,Class B,1978-10-21 12:00:00,45.12266,-111.563,10,1978,Montana
474,1631,Report 1631: Several incidents in the woods near the Sulphur River south of Texarkana,Class B,1978-10-28 12:00:00,33.37917,-94.11611,10,1978,Texas
475,7220,Report 7220: A man relates a series of occurrences on the family farm involving an upright walking hair covered creature,Class A,1978-11-01 12:00:00,39.54739,-81.39101,11,1978,Ohio
476,23367,Report 23367: Hunter has a close but brief encounter in a hazelnut bog near Middle River,Class B,1978-11-04 12:00:00,48.52579,-96.28425,11,1978,Minnesota
477,6425,Report 6425: Two hunters have a close encounter,Class A,1978-11-11 12:00:00,46.35639,-123.6081,11,1978,Washington
478,23730,Report 23730: Bowhunters get unexpected response near Boston,Class B,1978-11-15 12:00:00,37.7755,-85.67188,11,1978,Kentucky
479,1197,Report 1197: Several sighting reports near the Racoon River within days of each other.,Class A,1978-11-15 12:00:00,41.59377,-93.974,11,1978,Iowa
481,6848,Report 6848: Human-like footprints are found around a garage heading back into a remote hollow,Class B,1978-12-01 12:00:00,40.34042,-80.64211,12,1978,Ohio
482,1201,Report 1201: Drain pipes knocked down after strange howls/screams were heard,Class A,1978-12-01 12:00:00,39.52122,-80.37878,12,1978,West Virginia
483,48156,Report 48156: Duck hunter recalls hearing possible vocalizations from three individuals on Stockton Lake,Class B,1978-12-13 12:00:00,37.48743,-93.86594,12,1978,Missouri
484,5477,Report 5477: Teenager has a nighttime close encounter and then sees tracks in the snow in Avery,Class B,1978-12-16 12:00:00,38.20444,-120.3689,12,1978,California
485,10977,"Report 10977: Lady walking with dog has lengthy, close nighttime encounter",Class A,1978-12-18 12:00:00,43.9311,-124.1214,12,1978,Oregon
486,12158,Report 12158: Young boy views bigfoot through window,Class A,1979-02-17 12:00:00,44.58335,-116.0834,2,1979,Idaho
487,2399,"Report 2399: Human-like ""animal"" seen by family while target shooting near an open pasture.",Class A,1979-04-15 12:00:00,32.68,-94.3,4,1979,Texas
488,8394,"Report 8394: Family has encounters with a large, hair covered creature just on the edge of Wayne National Forest",Class A,1979-05-01 12:00:00,39.48219,-82.32669,5,1979,Ohio
490,7232,Report 7232: Morning sighting near Pelican Lake,Class A,1979-05-25 12:00:00,45.5051,-89.16425,5,1979,Wisconsin
491,20173,"Report 20173: Motorist describes nighttime sighting/encounter in headlights on US-2, west of St. Ignace",Class A,1979-06-01 12:00:00,45.91515,-84.87524,6,1979,Michigan
492,12140,Report 12140: Two teenagers have sighting east of Seneca,Class A,1979-06-09 12:00:00,41.33,-88.55,6,1979,Illinois
493,13441,Report 13441: Woman describes night time sighting during childhood in the Pike National Forest,Class A,1979-06-13 12:00:00,39.0465,-105.2146,6,1979,Colorado
494,63860,Report 63860: Two witnesses observe a Sasquatch at dusk in the White River National Wildlife Refuge,Class A,1979-06-14 12:00:00,34.17376,-91.07266,6,1979,Arkansas
495,44485,Report 44485: Memory told of a possible daylight sighting as a child on Mount Graham,Class B,1979-06-15 12:00:00,32.42445,-109.5601,6,1979,Arizona
496,1516,"Report 1516: Unknown animal with loud scream visits lake front home, frightens dog; something heavy is heard walking in the water",Class B,1979-06-15 12:00:00,32.4197,-93.4386,6,1979,Louisiana
497,6410,"Report 6410: Multiple witness sighting at night, 3 miles east of Mead, Nebraska",Class B,1979-07-04 12:00:00,41.2333,-96.42668,7,1979,Nebraska
498,8972,"Report 8972: Possible vocalizations heard by residents in the ""Bridgewater Triangle""",Class B,1979-07-13 12:00:00,42.12697,-70.97559,7,1979,Massachusetts
499,1502,"Report 1502: Five year old boy approached by a large, bi-pedal animal covered in dark hair",Class A,1979-07-15 12:00:00,31.1458,-93.2512,7,1979,Louisiana
500,26440,Report 26440: Hitchhiker hears loud vocalization just outside Ilwaco,Class B,1979-07-15 12:00:00,46.31401,-124.0273,7,1979,Washington
502,31302,"Report 31302: Avid hiker recalls years of experience living in an area with what local people called the ""Shadow People"" near Montague",Class B,1979-07-15 12:00:00,43.4245,-86.353,7,1979,Michigan
503,26076,Report 26076: Woman recalls watching a bigfoot cross the road while riding with her mother near Rocky Mount,Class A,1979-07-18 12:00:00,36.0089,-77.90525,7,1979,North Carolina
504,7205,Report 7205: Morning sighting by carpenter crew near Ochopee,Class A,1979-08-01 12:00:00,25.8972,-81.3065,8,1979,Florida
505,43612,Report 43612: Woman recalls encounter she had as a youth on rural property north of Bethany,Class A,1979-08-01 12:00:00,40.39956,-94.02478,8,1979,Missouri
506,27630,Report 27630: Man recalls observing creature in a field near Marinette,Class A,1979-08-01 12:00:00,45.02046,-87.73608,8,1979,Wisconsin
507,24061,Report 24061: Family gathering interrupted by 8-foot tall visitor at the kitchen window,Class A,1979-08-10 12:00:00,37.445,-80.17,8,1979,Virginia
508,3005,"Report 3005: While crossing a railroad track, witness sees creature covered in dark brown hair",Class A,1979-08-12 12:00:00,45.22849,-89.67523,8,1979,Wisconsin
509,38762,Report 38762: Woman recalls seeing something strange cross the road while driving at dusk near Ringwood,Class B,1979-08-15 12:00:00,41.06945,-74.15562,8,1979,New Jersey
510,24970,Report 24970: Man recalls daytime sighting 30 years ago as a seismic hole driller in the Angelina National Forest,Class A,1979-08-15 12:00:00,31.2371,-94.45095,8,1979,Texas
511,11273,Report 11273: Youth has sighting along abandoned railroad line on edge of West Frankfort.,Class A,1979-08-17 12:00:00,37.91,-88.929,8,1979,Illinois
512,1527,Report 1527: A sighting by two hunters,Class A,1979-08-25 12:00:00,32.15,-97.5,8,1979,Texas
513,27477,Report 27477: Man remembers seeing a large white hairy man at a cemetery outside the city of Jay,Class A,1979-09-06 12:00:00,36.4168,-94.78227,9,1979,Oklahoma
514,26513,Report 26513: Man recalls a sighting after Hurricane Frederic north of Mobile,Class A,1979-09-14 12:00:00,30.7113,-87.91833,9,1979,Alabama
515,1152,Report 1152: Hunter has evening sighting near Bazile Creek State Wildlife Management Area.,Class A,1979-09-15 12:00:00,42.76609,-97.97573,9,1979,Nebraska
516,10498,Report 10498: Hiker has daylight sighting near Warrior.,Class A,1979-09-15 12:00:00,33.8132,-86.7891,9,1979,Alabama
517,12328,"Report 12328: Hunters are awakened by loud, repetitive vocalizations in Monache Meadows",Class B,1979-10-01 12:00:00,36.1894,-118.1729,10,1979,California
518,35671,Report 35671: Bow hunter remembers possible intimidation behavior near Grand Rapids.,Class B,1979-10-01 12:00:00,43.153,-85.5995,10,1979,Michigan
519,7692,"Report 7692: Possible brush nest, tracks, smell, noticed by DeMolay teens visiting rural home Dunellon",Class B,1979-10-01 12:00:00,29.1299,-82.58765,10,1979,Florida
520,3820,Report 3820: Sasquatch evidence near Mount McLoughlin,Class B,1979-10-01 12:00:00,42.4356,-122.2328,10,1979,Oregon
521,27012,Report 27012: Witnesses tell of a sighting they had as teenagers outside Jackson - w/sketch by artist,Class A,1979-10-10 12:00:00,32.40191,-90.19371,10,1979,Mississippi
522,21145,Report 21145: Man remembers unknown screaming animal passing underneath his deer stand before dawn on Clark Hill Lake,Class B,1979-10-15 12:00:00,33.89761,-82.4975,10,1979,Georgia
523,7789,Report 7789: Members of Job Corps group have several encounters,Class A,1979-10-15 12:00:00,45.5145,-122.3352,10,1979,Oregon
524,20423,Report 20423: Sighting by two teenagers in woods near Albion,Class A,1979-10-18 12:00:00,42.3125,-84.7378,10,1979,Michigan
525,25056,Report 25056: Fish & Game employee recalls following possible tracks while hiking near Little Payette Lake,Class B,1979-10-20 12:00:00,44.9166,-116.4873,10,1979,Idaho
526,48085,Report 48085: Memory told of a sighting by a father and two sons grouse hunting at dawn near Pembine,Class A,1979-10-20 12:00:00,45.3865,-87.9604,10,1979,Wisconsin
527,12917,Report 12917: Vehicle passenger's daylight sighting near Hiouchi,Class A,1979-10-25 12:00:00,41.65,-123.85,10,1979,California
528,21821,Report 21821: Daytime Sighting by Caver West of Lake Monroe,Class A,1979-11-01 12:00:00,39.01166,-86.57665,11,1979,Indiana
529,1589,Report 1589: Two hunters find large track,Class B,1979-11-16 12:00:00,47.05472,-121.8211,11,1979,Washington
530,12122,Report 12122: Morning sighting by hunter in Homochitto National Forest near Knoxville,Class A,1979-11-28 12:00:00,31.39275,-91.08505,11,1979,Mississippi
531,2218,"Report 2218: Man approached at close range by man/ape creature at Fort Gordon, US Army Signal School",Class A,1979-12-01 12:00:00,33.3646,-82.24471,12,1979,Georgia
532,1595,Report 1595: Family sees an upright figure covered with black hair that walks across the road in front of their car,Class A,1979-12-07 12:00:00,47.3704,-122.782,12,1979,Washington
533,1695,Report 1695: Motorist sees long-haired upright animal walking across snow-covered road,Class A,1979-12-31 12:00:00,47.70667,-104.1922,12,1979,Montana
534,4096,Report 4096: Sighting by truck driver near Felsenthal Wildlife Refuge,Class C,1980-01-01 12:00:00,33.1075,-92.33472,1,1980,Arkansas
535,1671,Report 1671: Motorists spots a bigfoot,Class A,1980-01-11 12:00:00,48.11556,-122.0958,1,1980,Washington
536,27067,Report 27067: Motorists pulled over on a rural highway at night describe standoff in headlights east of Clayton,Class A,1980-01-12 12:00:00,31.86801,-85.35995,1,1980,Alabama
537,13096,Report 13096: Possible nighttime road crossing sighting by motorist near Lamont.,Class B,1980-02-01 12:00:00,35.2673,-118.9591,2,1980,California
538,13976,Report 13976: Possible tracks and sounds outside a home near Lady Lake,Class B,1980-02-01 12:00:00,28.917,-81.898,2,1980,Florida
539,1031,Report 1031: Large Bipedal Animal Seen Crossing Rural Road and Climbing Cutbank,Class A,1980-02-15 12:00:00,40.1,-124.2,2,1980,California
540,10892,Report 10892: Youth has daylight sighting in swampy area near Canton Lake.,Class A,1980-04-12 12:00:00,40.5332,-90.0594,4,1980,Illinois
541,1275,Report 1275: Bigfoot rips door off of home. Witness has to flee from home,Class A,1980-04-15 12:00:00,28.6901,-81.5446,4,1980,Florida
542,1707,Report 1707: Department of Natural Resources tree-planting crew views two animals walking upright near Home Valley,Class A,1980-04-15 12:00:00,45.69833,-121.7753,4,1980,Oregon
543,1593,Report 1593: Sounds heard like growling,Class B,1980-04-16 12:00:00,47.15556,-122.4328,4,1980,Washington
544,24905,Report 24905: Man recalls a late night encounter while parking in a remote area north of Splendora,Class A,1980-04-19 12:00:00,30.302,-95.10654,4,1980,Texas
545,13662,Report 13662: Daylight sighting near a railroad bed and the Canisteo River,Class A,1980-04-21 12:00:00,42.28045,-77.60525,4,1980,New York
546,12916,Report 12916: Daylight sighting by motorists near the town of Big Lake,Class A,1980-05-10 12:00:00,48.35552,-121.8668,5,1980,Washington
547,22599,Report 22599: Hunter has unusual experience while spring turkey hunting,Class B,1980-05-15 12:00:00,40.61798,-77.62407,5,1980,Pennsylvania
548,21684,"Report 21684: Man describes childhood incident, a possible approach at Seven Lakes",Class B,1980-05-16 12:00:00,37.15889,-118.3743,5,1980,California
549,58031,Report 58031: Recalling possible daylight sighting near Trout Lake as Mount St. Helens erupts,Class B,1980-05-18 12:00:00,45.96384,-121.6095,5,1980,Washington
550,2047,"Report 2047: Thumping noise heard at night, footprints found in morning",Class A,1980-05-24 12:00:00,48.2681,-121.3314,5,1980,Washington
551,4306,"Report 4306: Sighting at a home on Duke Vodrey Rd., above Beaver Creek.",Class A,1980-06-01 12:00:00,40.76533,-80.55217,6,1980,Ohio
552,22572,Report 22572: Man recalls a close daylight encounter when a bigfoot ran out in front of their truck near Chapel Hill,Class A,1980-06-10 12:00:00,35.6753,-86.7074,6,1980,Tennessee
553,12220,Report 12220: Possible approach to a dwelling between Calcutta and East Liverpool,Class B,1980-06-15 12:00:00,40.69334,-80.57396,6,1980,Ohio
554,23745,Report 23745: Man recounts boyhood sighting at home near Jigger,Class A,1980-06-15 12:00:00,32.0131,-91.14448,6,1980,Louisiana
555,13983,Report 13983: Possible sighting by fisherman at Blue Lake.,Class A,1980-06-15 12:00:00,35.0194,-90.32,6,1980,Arkansas
556,7969,Report 7969: Youth hears vocalizations and is trailed while fishing on White River,Class B,1980-06-15 12:00:00,36.36,-92.55472,6,1980,Arkansas
557,29636,Report 29636: Fisherman recalls being startled by late night encounter on Fletcher Pond near Hillman,Class B,1980-06-27 12:00:00,44.98276,-83.84937,6,1980,Michigan
558,1672,"Report 1672: Two backpackers see a large, dark, human-like form on a narrow trail",Class A,1980-06-28 12:00:00,48.1472,-121.3819,6,1980,Washington
559,5510,Report 5510: Man finds and casts large footprints after hearing of sighting,Class B,1980-06-30 12:00:00,29.12915,-81.63025,6,1980,Florida
560,2400,Report 2400: While looking into the woods witness saw creature watching them,Class A,1980-06-30 12:00:00,31.35833,-95.48833,6,1980,Texas
561,1155,Report 1155: Newspaper account of an encounter with an unknown creature near Salt Creek,Class A,1980-06-30 12:00:00,40.84792,-96.6824,6,1980,Nebraska
562,7133,"Report 7133: Father, son and cousin enounter a large hair covered creature while wading through a creek",Class A,1980-07-01 12:00:00,39.49265,-83.11422,7,1980,Ohio
563,1200,"Report 1200: Witness heard what sounded like ""people talking backwards.""",Class B,1980-07-01 12:00:00,38.38096,-82.52633,7,1980,West Virginia
564,7803,Report 7803: Three college students witness a large creature standing just off of the railroad tracks.,Class A,1980-07-01 12:00:00,39.4484,-82.2244,7,1980,Ohio
565,21402,Report 21402: Daylight sighting by artifact hunter northwest of Cleveland,Class A,1980-07-01 12:00:00,34.64145,-83.80404,7,1980,Georgia
566,725,Report 725: Large tracks found investigated by Federal authorities,Class A,1980-07-02 12:00:00,29.10635,-81.62275,7,1980,Florida
567,6836,Report 6836: Early afternoon vocalization heard by four people,Class B,1980-07-03 12:00:00,41.47511,-79.3178,7,1980,Pennsylvania
568,7236,Report 7236: Pre-teens encounter 2 ape like creatures while exploring the woods,Class A,1980-07-05 12:00:00,31.14195,-93.2952,7,1980,Louisiana
569,594,"Report 594: a sighting by a group of boys along a canal, a mile or so north of South New River.",Class A,1980-07-15 12:00:00,26.08285,-80.21025,7,1980,Florida
570,1608,"Report 1608: Noise, like wood being banged against tree. Tracks found",Class B,1980-07-15 12:00:00,28.021,-81.8642,7,1980,Florida
571,7642,"Report 7642: Two men find rockpiles, nest at Abiqua River",Class B,1980-07-15 12:00:00,45.03575,-122.7789,7,1980,Oregon
572,1311,Report 1311: Daylight sighting by two moto-cross riders,Class A,1980-07-20 12:00:00,39.1489,-96.9614,7,1980,Kansas
573,8680,Report 8680: Boys hear moaning call from bedroom window,Class B,1980-07-27 12:00:00,45.5775,-121.6444,7,1980,Oregon
574,13613,"Report 13613: Hikers find footprints, hear sounds, etc., near Leavitt Meadows",Class B,1980-08-01 12:00:00,38.29165,-119.54,8,1980,California
575,4613,Report 4613: Two firefighters have near collision with animal north of Houghton Lake.,Class A,1980-08-12 12:00:00,44.4355,-84.7602,8,1980,Michigan
576,3301,Report 3301: Daytime sighting in a wooded area a few miles east of Interstate 271,Class A,1980-08-15 12:00:00,41.47349,-81.3726,8,1980,Ohio
577,7298,Report 7298: Two fishermen encounter an unknown biped along a creek,Class A,1980-08-15 12:00:00,43.5705,-121.8955,8,1980,Oregon
578,25462,Report 25462: Man remembers an encounter while fly fishing at a remote lake in the Olympic Mountains near Hood Canal,Class B,1980-08-15 12:00:00,47.71782,-123.0533,8,1980,Washington
579,11841,Report 11841: Two young boys see crouching animal,Class A,1980-08-21 12:00:00,41.5036,-73.7171,8,1980,New York
580,7940,"Report 7940: Bother and sister are followed by a brown, hairy creature walking on two legs",Class A,1980-08-25 12:00:00,38.54852,-82.66616,8,1980,Ohio
581,31594,Report 31594: Memory told of a possible sighting of two juveniles tree climbing at sundown near Farmville,Class B,1980-08-30 12:00:00,37.303,-78.193,8,1980,Virginia
582,2274,Report 2274: Late night up-close encounter in the Umpqua Nat'l Forest near Toketee Falls,Class B,1980-09-01 12:00:00,43.20335,-122.3759,9,1980,Oregon
583,3295,Report 3295: Afternoon sighting in hills between Oakland and Sutherlin,Class A,1980-09-05 12:00:00,43.225,-123.175,9,1980,Oregon
584,9197,Report 9197: Motorist surprises animal crossing freeway,Class A,1980-09-07 12:00:00,48.68985,-122.4078,9,1980,Washington
585,27897,Report 27897: Memory told of being followed and hearing possible vocalizations at a house near Napavine,Class B,1980-09-15 12:00:00,46.50105,-122.8722,9,1980,Washington
586,3455,Report 3455: Two security guards see a creature outside of Gold Hill,Class A,1980-09-15 12:00:00,39.29056,-119.6564,9,1980,Nevada
587,4156,"Report 4156: Loud, high-pitched, close-range screams directed at bowhunters",Class C,1980-09-15 12:00:00,31.87791,-94.89986,9,1980,Texas
588,7773,Report 7773: Hunters hear late night screams in the Trinity Alps Wilderness,Class B,1980-09-30 12:00:00,40.9913,-122.8719,9,1980,California
589,553,Report 553: Morning sighting by brothers near Yoncalla,Class A,1980-10-04 12:00:00,44.55505,-123.3604,10,1980,Oregon
590,2425,Report 2425: Family has evening sighting in Mayslick,Class A,1980-10-07 12:00:00,38.51465,-83.83695,10,1980,Kentucky
591,20197,Report 20197: Nighttime sighting by motorist near Mt. Madonna Park in the Santa Cruz Mountains,Class A,1980-10-11 12:00:00,38.4906,-121.7138,10,1980,California
592,2382,Report 2382: Man fires shots at an unidentified man or animal near his back porch. Later he finds frozen meat littered about his back yard,Class A,1980-10-11 12:00:00,38.45795,-83.9311,10,1980,Kentucky
593,26124,Report 26124: Man recalls seeing a large creature walk across his yard near Tioga,Class A,1980-10-15 12:00:00,31.40304,-92.46844,10,1980,Louisiana
594,29980,Report 29980: Hunter remembers his lengthy daylight sighting through binoculars near Dora,Class A,1980-10-27 12:00:00,36.8109,-92.3046,10,1980,Missouri
595,25156,Report 25156: Very close daylight sighting by a woodcutter driving down a logging road east of Nordman,Class A,1980-10-28 12:00:00,48.6334,-116.934,10,1980,Idaho
596,3920,Report 3920: Hunters have several encounters near Ash Cave State Park,Class A,1980-10-31 12:00:00,39.39935,-82.52238,10,1980,Ohio
597,2426,Report 2426: Early morning sighting by truck driver on I-68. Local police make report,Class A,1980-11-05 12:00:00,38.63454,-83.80266,11,1980,Kentucky
598,37522,Report 37522: Homeowner recalls night time sighting in NW Decatur,Class A,1980-11-08 12:00:00,39.8732,-88.9813,11,1980,Illinois
599,1565,Report 1565: Tracks found near a mountainside clear cut,Class B,1980-11-12 12:00:00,46.55139,-121.4625,11,1980,Washington
600,832,"Report 832: Witnesses spot a tall, brown object moving on a hill, also reported are moans and a sighting where red eyes are described",Class A,1980-11-15 12:00:00,33.13195,-88.17885,11,1980,Alabama
601,1278,"Report 1278: While hunting with his dog, a hunter observes a creature in the brush",Class B,1980-11-15 12:00:00,30.8346,-92.64896,11,1980,Louisiana
602,2806,"Report 2806: The ""Big Muddy Monster"" flap of Murphysboro",Class C,1980-11-15 12:00:00,37.745,-89.3595,11,1980,Illinois
603,29178,Report 29178: Passenger recalls a nighttime sighting near Brooklyn.,Class A,1980-11-16 12:00:00,42.068,-84.22701,11,1980,Michigan
604,36202,Report 36202: Memory told of a tall hairy figure seen in a corn field near Lawrenceville,Class B,1980-12-20 12:00:00,36.91355,-77.95074,12,1980,Virginia
606,25267,Report 25267: Memory told of a sasquatch standing in headlights on Christmas Eve west of St. Jacob,Class A,1980-12-24 12:00:00,38.72226,-89.80125,12,1980,Illinois
607,1376,Report 1376: Man sees large creature while working the late shift at a mine.,Class A,1981-01-15 12:00:00,38.753,-105.1598,1,1981,Colorado
608,3352,Report 3352: Large footprint found in sandbar,Class B,1981-01-31 12:00:00,38.89665,-83.40573,1,1981,Ohio
609,10556,Report 10556: Two miners have nighttime sighting near Louellen,Class A,1981-02-02 12:00:00,36.9265,-83.0452,2,1981,Kentucky
610,22945,Report 22945: Man recalls observing possible tracks and being screamed at on his paper route in Eldridge,Class B,1981-02-04 12:00:00,41.65225,-90.59601,2,1981,Iowa
611,8022,Report 8022: Couple hears vocalizations on Short Mountain.,Class B,1981-02-15 12:00:00,36.36264,-82.98764,2,1981,Tennessee
612,2779,Report 2779: A Local Writer Discusses Her Experiences Pursuing Local Reports and Legends,Class C,1981-02-15 12:00:00,32.71528,-117.1564,2,1981,California
613,28993,Report 28993: Couple recount seeing large biped walking in ditch near Marinette,Class B,1981-04-15 12:00:00,45.05592,-87.63705,4,1981,Wisconsin
614,24539,Report 24539: Two cousins have a sighting in a thunderstorm on a family farm outside Palestine,Class A,1981-04-30 12:00:00,31.82347,-95.37101,4,1981,Texas
615,33867,Report 33867: Memory told of a possible encounter while fishing near Salkum,Class B,1981-05-15 12:00:00,46.48508,-122.7372,5,1981,Washington
616,7481,Report 7481: Children have sighting near Alder Lake,Class B,1981-05-31 12:00:00,46.79955,-122.2738,5,1981,Washington
617,1461,Report 1461: Witnesses saw Creature next to a Broken Tree,Class A,1981-06-01 12:00:00,31.3058,-92.4054,6,1981,Louisiana
618,12803,Report 12803: Hikers off Lewis River Trail find large footprint east of Cougar,Class B,1981-06-01 12:00:00,46.09035,-121.9313,6,1981,Washington
619,25189,Report 25189: Husband and wife recall daytime sighting while their boys swam in Tipsaw Lake near Leopold,Class A,1981-06-15 12:00:00,38.12318,-86.64338,6,1981,Indiana
620,431,Report 431: Sound and Footprint Reports from Stanislaus National Forest,Class B,1981-06-15 12:00:00,38.14167,-119.7111,6,1981,California
621,4731,Report 4731: A woman sitting on a bench in a park sees a large hairy creature behind a four foot wall staring at her,Class A,1981-07-01 12:00:00,41.7164,-81.1438,7,1981,Ohio
622,6971,Report 6971: Couple hear late night scream near Fort Ross,Class B,1981-07-02 12:00:00,38.51639,-123.24,7,1981,California
623,1113,Report 1113: Northeast Washington resident sees a bigfoot looking in the window,Class A,1981-07-02 12:00:00,48.78389,-117.8106,7,1981,Washington
624,6929,Report 6929: 16-year-old girl has nighttime sighting near hot springs,Class A,1981-07-07 12:00:00,44.75,-115.9167,7,1981,Idaho
625,16962,Report 16962: Possible early morning sighting along country road near Pickens,Class A,1981-07-11 12:00:00,34.52414,-82.38998,7,1981,South Carolina
626,11430,Report 11430: Two young men have a sighting while spelunking near Huntsville.,Class A,1981-07-15 12:00:00,36.31519,-93.75723,7,1981,Arkansas
627,717,Report 717: Unusual shadow seen through window near Branson. Large footprints found the next morning,Class B,1981-08-01 12:00:00,36.63621,-93.31413,8,1981,Missouri
628,4929,Report 4929: Teenager hears unusual daytime vocalization near Courtright Reservoir,Class B,1981-08-01 12:00:00,37.07944,-118.9689,8,1981,California
629,24224,Report 24224: Man tells of his possible daylight encounter as a young motorcycle explorer in the Coeur d'Alene National Forest,Class B,1981-08-01 12:00:00,47.6835,-116.211,8,1981,Idaho
630,10867,Report 10867: Youths have daylight sighting in wooded area of Sarasota.,Class A,1981-08-07 12:00:00,27.28518,-82.46557,8,1981,Florida
631,135,Report 135: Two couples shine owl and observe large hairy primate,Class A,1981-08-15 12:00:00,44.8491,-88.51969,8,1981,Wisconsin
632,13347,Report 13347: Possible daylight sighting by boy near Meridian,Class B,1981-08-15 12:00:00,32.31255,-88.65135,8,1981,Mississippi
633,28946,Report 28946: Army Vet recalls daylight sighting near Prescott,Class A,1981-08-15 12:00:00,34.55154,-112.5421,8,1981,Arizona
634,430,Report 430: Brothers hear howl while trailblazing,Class B,1981-08-15 12:00:00,29.10855,-82.75685,8,1981,Florida
635,27250,Report 27250: Woman remembers observing a bi-pedal hair-covered adult and youth while driving near Bronson,Class A,1981-08-28 12:00:00,29.47368,-82.6783,8,1981,Florida
636,66051,Report 66051: Youths have evening encounter near Allaire State Park,Class A,1981-09-04 12:00:00,40.18113,-74.09944,9,1981,New Jersey
637,179,"Report 179: Man and witnesses have two seperate sighting, 1st while fishing, 2nd while driving",Class A,1981-09-15 12:00:00,32.31435,-85.16235,9,1981,Alabama
638,941,Report 941: Sighting by a hunter on the edge of a road,Class A,1981-09-15 12:00:00,47.7079,-122.9179,9,1981,Washington
639,1681,Report 1681: Young boy awakened by a loud roaring scream (Part 2),Class B,1981-09-16 12:00:00,46.803,-122.4133,9,1981,Washington
640,40645,Report 40645: Memory told of observing a hairy biped close to Civil War fortifications near Fort Lee,Class A,1981-09-19 12:00:00,37.248,-77.354,9,1981,Virginia
641,415,Report 415: 2 men hear vocalization while calling up coyoties,Class B,1981-10-15 12:00:00,35.5035,-89.91499,10,1981,Tennessee
642,4381,Report 4381: Brief dusk sighting near Pillowville,Class B,1981-10-15 12:00:00,36.12292,-88.65445,10,1981,Tennessee
643,1079,Report 1079: Foot steps heard in wood line. Weeks later more sounds heard,Class B,1981-10-15 12:00:00,28.662,-81.31985,10,1981,Florida
644,24302,Report 24302: Man recounts a history of possible activity in the Sierra Anchas,Class B,1981-10-15 12:00:00,33.825,-110.925,10,1981,Arizona
646,1507,"Report 1507: Witness hears loud noise outside bedroom window, observes bipedal animal running away",Class A,1981-11-01 12:00:00,40.36957,-80.77387,11,1981,Ohio
647,8685,Report 8685: Morning sighting in the Lukachukai Mountains of northeast Arizona,Class A,1981-11-07 12:00:00,36.54165,-109.29,11,1981,Arizona
648,28263,Report 28263: Man recalls his terrifying encounter near the Econfino State Park while camping with his family,Class B,1981-11-21 12:00:00,30.11597,-83.89289,11,1981,Florida
649,13833,Report 13833: Early evening sighting by motorist two miles outside Bon Wier,Class A,1981-11-25 12:00:00,30.8,-93.7,11,1981,Texas
650,1533,Report 1533: Motorist & passenger see white creature standing off I-15,Class B,1981-12-20 12:00:00,47.07444,-111.9625,12,1981,Montana
651,26581,"Report 26581: Man remembers observing a hairy, bipedal creature in the headlights of his car near Port Richey",Class A,1982-01-01 12:00:00,28.29425,-82.71758,1,1982,Florida
652,20011,Report 20011: Hunters experience powerfull knocks on camper and hear vocalizations outside Jicarilla Indian Reservation,Class B,1982-01-11 12:00:00,36.4178,-107.1612,1,1982,New Mexico
653,4081,Report 4081: Early morning sighting of young sasquatch in snow,Class A,1982-01-15 12:00:00,35.64389,-97.45694,1,1982,Oklahoma
654,989,Report 989: Deer hunter spots a large animal run across open area,Class A,1982-01-15 12:00:00,30.84015,-86.9648,1,1982,Florida
655,40378,Report 40378: Fishermen recount having large rocks thrown at them while fishing Steelhead on the Duckabush River,Class B,1982-01-23 12:00:00,47.6653,-122.9714,1,1982,Washington
656,11762,Report 11762: Daylight sighting by motorist couple in the Montura Estates area.,Class A,1982-02-01 12:00:00,26.61979,-80.60976,2,1982,Florida
657,58136,Report 58136: Six witnesses in three cars see a sasquatch in Big Piney Woods,Class A,1982-02-06 12:00:00,33.211,-94.0765,2,1982,Texas
658,1208,"Report 1208: Vocalizing, smelly animal circles cabin",Class C,1982-03-14 12:00:00,47.17833,-111.9744,3,1982,Montana
659,25444,Report 25444: High school teacher recalls a nighttime sighting while camping in the Los Padres National Forest,Class A,1982-04-15 12:00:00,34.73389,-119.9254,4,1982,California
660,4143,"Report 4143: While searching for their uncle, two boys see a tall creature look at them, grunt and run off towards the woods",Class A,1982-04-15 12:00:00,33.64555,-95.16028,4,1982,Texas
661,4421,Report 4421: Soldier in basic training has daylight sighting at Fort Leonard Wood.,Class A,1982-05-15 12:00:00,37.714,-92.173,5,1982,Missouri
662,2599,Report 2599: Grays Harbor County Sheriff's Department Offense report/summary,Class A,1982-06-02 12:00:00,46.9705,-123.6288,6,1982,Washington
663,18823,Report 18823: Young Man Has Surprise Encounter at High School Graduation Party,Class A,1982-06-04 12:00:00,47.00625,-123.2902,6,1982,Washington
664,5623,Report 5623: Teens find footprint in abandoned strip mining area near Pittsburg,Class B,1982-06-05 12:00:00,37.4253,-94.7844,6,1982,Kansas
665,6530,Report 6530: Child has encounter while playing near a creek,Class A,1982-06-05 12:00:00,30.49905,-91.01565,6,1982,Louisiana
666,2279,"Report 2279: Multiple witness sighting near Beards Creek Church, outside Glennville",Class A,1982-06-15 12:00:00,31.8792,-81.88475,6,1982,Georgia
667,2696,"Report 2696: Nighttime sighting by three in car, on Sprucevale Rd. near Calcutta",Class A,1982-06-15 12:00:00,40.70386,-80.58332,6,1982,Ohio
668,12597,Report 12597: Night encounter near rural home outside Crooked Tree,Class B,1982-06-19 12:00:00,39.64081,-81.47081,6,1982,Ohio
669,28805,Report 28805: Camper recounts late night experience and finds footprints near Interlochen,Class B,1982-06-25 12:00:00,44.66666,-85.79052,6,1982,Michigan
670,1519,Report 1519: Boys observe hairy man-like creature several times,Class A,1982-06-30 12:00:00,47.04333,-112.7031,6,1982,Montana
671,1504,"Report 1504: Nighttime sighting by motorist on Hwy 101 (Coast Highway), 7-8 miles east of Port Angeles",Class A,1982-07-03 12:00:00,48.0985,-123.3261,7,1982,Washington
672,4392,Report 4392: Camper hears heavy footsteps at night around tent at Baker Lake,Class B,1982-07-11 12:00:00,48.72917,-121.6278,7,1982,Washington
673,19937,Report 19937: Man recollects he and his family being followed and hearing close vocalization on Mt. Rainier,Class B,1982-07-15 12:00:00,46.74551,-121.8221,7,1982,Washington
674,1141,Report 1141: Two six foot tall creatures seen by witness.,Class A,1982-07-15 12:00:00,38.0944,-93.5577,7,1982,Missouri
